[
  {
    "id": 1,
    "name": "阿塔卡马沙漠",
    "nameEn": "Atacama Desert",
    "country": "智利",
    "region": "南美洲",
    "lat": -23.5,
    "lng": -68.0,
    "type": "天文台区域",
    "bortle": 1,
    "bestSeason": "全年",
    "altitude": 5000,
    "highlights": ["银河拱桥", "ALMA天文台", "世界最干燥", "极低湿度"],
    "description": "全球最佳观星地之一，极低光污染和湿度，ALMA天文台所在地",
    "matchKeys": ["阿塔卡马", "Atacama", "ALMA"]
  },
  {
    "id": 2,
    "name": "帕瑞纳天文台",
    "nameEn": "Paranal Observatory",
    "country": "智利",
    "region": "南美洲",
    "lat": -24.627,
    "lng": -70.405,
    "type": "天文台区域",
    "bortle": 1,
    "bestSeason": "全年",
    "altitude": 2635,
    "highlights": ["VLT超大望远镜", "ESO欧南台", "极致透明度"],
    "description": "欧洲南方天文台旗舰台址，拥有四台8.2米VLT望远镜，大气透明度世界顶级",
    "matchKeys": ["帕瑞纳", "Paranal", "VLT", "欧南台"]
  },
  {
    "id": 3,
    "name": "艾尔基山谷",
    "nameEn": "Elqui Valley",
    "country": "智利",
    "region": "南美洲",
    "lat": -30.13,
    "lng": -70.49,
    "type": "观星胜地",
    "bortle": 2,
    "bestSeason": "全年",
    "altitude": 1200,
    "highlights": ["天文旅游胜地", "皮斯科酒乡", "民间天文台"],
    "description": "智利著名天文旅游目的地，拥有多座对公众开放的民间天文台和清澈夜空",
    "matchKeys": ["艾尔基", "Elqui", "埃尔基"]
  },
  {
    "id": 4,
    "name": "莫纳克亚山",
    "nameEn": "Mauna Kea",
    "country": "美国",
    "region": "北美洲",
    "lat": 19.821,
    "lng": -155.468,
    "type": "天文台区域",
    "bortle": 1,
    "bestSeason": "全年",
    "altitude": 4207,
    "highlights": ["凯克望远镜", "高海拔台址", "大气稳定"],
    "description": "夏威夷最高峰，全球最重要的天文台集群之一，常年位于云层之上",
    "matchKeys": ["莫纳克亚", "冒纳凯亚", "Mauna Kea", "夏威夷天文台"]
  },
  {
    "id": 5,
    "name": "穆查丘斯罗克天文台",
    "nameEn": "Roque de los Muchachos Observatory",
    "country": "西班牙",
    "region": "欧洲",
    "lat": 28.764,
    "lng": -17.892,
    "type": "天文台区域",
    "bortle": 1,
    "bestSeason": "5-10月",
    "altitude": 2396,
    "highlights": ["GTC大望远镜", "加那利群岛", "反气旋稳定层"],
    "description": "拉帕尔马岛上的北半球顶级天文台，拥有世界最大单镜面望远镜GTC",
    "matchKeys": ["拉帕尔马", "La Palma", "Roque de los Muchachos", "穆查丘斯"]
  },
  {
    "id": 6,
    "name": "泰德天文台",
    "nameEn": "Teide Observatory",
    "country": "西班牙",
    "region": "欧洲",
    "lat": 28.300,
    "lng": -16.512,
    "type": "天文台区域",
    "bortle": 2,
    "bestSeason": "5-10月",
    "altitude": 2390,
    "highlights": ["泰德火山", "太阳望远镜", "暗夜保护法"],
    "description": "特内里费岛泰德峰上的天文台，加那利群岛严格的光污染法规保护了这片暗夜",
    "matchKeys": ["泰德", "特内里费", "Teide", "Tenerife"]
  },
  {
    "id": 7,
    "name": "基特峰国家天文台",
    "nameEn": "Kitt Peak National Observatory",
    "country": "美国",
    "region": "北美洲",
    "lat": 31.964,
    "lng": -111.600,
    "type": "天文台区域",
    "bortle": 2,
    "bestSeason": "3-10月",
    "altitude": 2096,
    "highlights": ["麦克马斯太阳望远镜", "印第安保留地", "亚利桑那暗夜"],
    "description": "亚利桑那州索诺兰沙漠中的天文台群，受图森市光污染条例保护",
    "matchKeys": ["基特峰", "Kitt Peak", "亚利桑那天文台"]
  },
  {
    "id": 8,
    "name": "天然桥国家保护区",
    "nameEn": "Natural Bridges National Monument",
    "country": "美国",
    "region": "北美洲",
    "lat": 37.632,
    "lng": -110.007,
    "type": "国际暗夜公园",
    "bortle": 1,
    "bestSeason": "4-10月",
    "altitude": 1981,
    "highlights": ["首个IDA暗夜公园", "天然石桥", "犹他暗夜"],
    "description": "2007年被认证为世界首个国际暗夜公园，犹他州偏远峡谷中的原始暗夜",
    "matchKeys": ["天然桥", "Natural Bridges", "犹他暗夜"]
  },
  {
    "id": 9,
    "name": "樱桃泉州立公园",
    "nameEn": "Cherry Springs State Park",
    "country": "美国",
    "region": "北美洲",
    "lat": 41.664,
    "lng": -77.823,
    "type": "国际暗夜公园",
    "bortle": 2,
    "bestSeason": "5-9月",
    "altitude": 710,
    "highlights": ["东部最暗夜空", "天文爱好者圣地", "暗夜保护典范"],
    "description": "美国东部最黑暗的夜空之一，宾夕法尼亚州森林中的天文爱好者朝圣地",
    "matchKeys": ["樱桃泉", "Cherry Springs"]
  },
  {
    "id": 10,
    "name": "死亡谷国家公园",
    "nameEn": "Death Valley National Park",
    "country": "美国",
    "region": "北美洲",
    "lat": 36.505,
    "lng": -117.079,
    "type": "国际暗夜公园",
    "bortle": 1,
    "bestSeason": "10-4月",
    "altitude": -86,
    "highlights": ["北美最低点", "极干燥气候", "金色峡谷星空"],
    "description": "北美最低最热最干之地，极低湿度和远离城市使其拥有壮丽暗夜",
    "matchKeys": ["死亡谷", "Death Valley"]
  },
  {
    "id": 11,
    "name": "大峡谷国家公园",
    "nameEn": "Grand Canyon National Park",
    "country": "美国",
    "region": "北美洲",
    "lat": 36.107,
    "lng": -112.113,
    "type": "国际暗夜公园",
    "bortle": 2,
    "bestSeason": "4-10月",
    "altitude": 2100,
    "highlights": ["峡谷星空", "IDA暗夜公园", "新月最佳"],
    "description": "世界自然奇观上方的壮阔星空，2019年获国际暗夜公园认证",
    "matchKeys": ["大峡谷", "Grand Canyon"]
  },
  {
    "id": 12,
    "name": "贾斯珀国家公园",
    "nameEn": "Jasper National Park",
    "country": "加拿大",
    "region": "北美洲",
    "lat": 52.873,
    "lng": -117.954,
    "type": "暗夜保护区",
    "bortle": 2,
    "bestSeason": "8-10月",
    "altitude": 1060,
    "highlights": ["世界最大暗夜保护区", "落基山脉", "暗夜节"],
    "description": "全球面积最大的暗夜保护区，加拿大落基山脉中11000平方公里的原始暗夜",
    "matchKeys": ["贾斯珀", "Jasper", "贾斯帕"]
  },
  {
    "id": 13,
    "name": "奥拉基麦肯齐国际暗夜保护区",
    "nameEn": "Aoraki Mackenzie International Dark Sky Reserve",
    "country": "新西兰",
    "region": "大洋洲",
    "lat": -43.886,
    "lng": 170.510,
    "type": "暗夜保护区",
    "bortle": 1,
    "bestSeason": "4-9月",
    "altitude": 710,
    "highlights": ["南十字星", "库克山", "金级暗夜保护区"],
    "description": "南半球首个国际暗夜保护区，新西兰库克山下可见壮观南天星空和极光",
    "matchKeys": ["奥拉基", "麦肯齐", "Aoraki Mackenzie", "库克山暗夜"]
  },
  {
    "id": 14,
    "name": "特卡波湖",
    "nameEn": "Lake Tekapo",
    "country": "新西兰",
    "region": "大洋洲",
    "lat": -44.005,
    "lng": 170.477,
    "type": "观星胜地",
    "bortle": 1,
    "bestSeason": "4-9月",
    "altitude": 710,
    "highlights": ["好牧羊人教堂", "约翰山天文台", "牛奶蓝湖"],
    "description": "新西兰南岛标志性观星地，好牧羊人教堂与银河的合影闻名世界",
    "matchKeys": ["特卡波", "蒂卡波", "Tekapo", "Lake Tekapo"]
  },
  {
    "id": 15,
    "name": "纳米布兰德自然保护区",
    "nameEn": "NamibRand Nature Reserve",
    "country": "纳米比亚",
    "region": "非洲",
    "lat": -25.050,
    "lng": 15.950,
    "type": "暗夜保护区",
    "bortle": 1,
    "bestSeason": "5-10月",
    "altitude": 900,
    "highlights": ["非洲首个暗夜保护区", "纳米布沙漠", "金级认证"],
    "description": "非洲首个获IDA金级认证的暗夜保护区，纳米布沙漠中的极致黑暗",
    "matchKeys": ["纳米布兰德", "NamibRand", "纳米比亚暗夜"]
  },
  {
    "id": 16,
    "name": "索苏斯维利",
    "nameEn": "Sossusvlei",
    "country": "纳米比亚",
    "region": "非洲",
    "lat": -24.740,
    "lng": 15.293,
    "type": "观星胜地",
    "bortle": 1,
    "bestSeason": "5-10月",
    "altitude": 900,
    "highlights": ["红色沙丘", "死亡谷盆地", "星轨摄影"],
    "description": "纳米比亚标志性红色沙丘上方的璀璨星空，沙漠中几乎零光污染",
    "matchKeys": ["索苏斯维利", "Sossusvlei", "索苏维来"]
  },
  {
    "id": 17,
    "name": "撒哈拉沙漠（梅尔祖卡）",
    "nameEn": "Sahara Desert (Merzouga)",
    "country": "摩洛哥",
    "region": "非洲",
    "lat": 31.099,
    "lng": -4.013,
    "type": "观星胜地",
    "bortle": 1,
    "bestSeason": "9-5月",
    "altitude": 680,
    "highlights": ["撒哈拉星空", "沙漠骆驼", "游牧营地"],
    "description": "摩洛哥撒哈拉沙漠边缘的梅尔祖卡，在沙丘营地中仰望无边暗夜",
    "matchKeys": ["撒哈拉", "梅尔祖卡", "Sahara", "Merzouga"]
  },
  {
    "id": 18,
    "name": "布雷肯比肯斯国家公园",
    "nameEn": "Brecon Beacons National Park",
    "country": "英国",
    "region": "欧洲",
    "lat": 51.883,
    "lng": -3.436,
    "type": "暗夜保护区",
    "bortle": 3,
    "bestSeason": "9-3月",
    "altitude": 450,
    "highlights": ["威尔士暗夜", "银河季", "天文节"],
    "description": "威尔士首个国际暗夜保护区，在英国难得的低光污染山区欣赏银河",
    "matchKeys": ["布雷肯比肯斯", "Brecon Beacons", "布雷肯", "班纳布雷肯"]
  },
  {
    "id": 19,
    "name": "盖洛韦森林公园",
    "nameEn": "Galloway Forest Park",
    "country": "英国",
    "region": "欧洲",
    "lat": 55.065,
    "lng": -4.594,
    "type": "国际暗夜公园",
    "bortle": 3,
    "bestSeason": "9-3月",
    "altitude": 300,
    "highlights": ["英国首个暗夜公园", "苏格兰高地", "银河拱桥"],
    "description": "2009年成为英国首个国际暗夜公园，苏格兰西南部最黑暗的天空",
    "matchKeys": ["盖洛韦", "Galloway", "加洛韦"]
  },
  {
    "id": 20,
    "name": "凯里国际暗夜保护区",
    "nameEn": "Kerry International Dark Sky Reserve",
    "country": "爱尔兰",
    "region": "欧洲",
    "lat": 51.773,
    "lng": -10.087,
    "type": "暗夜保护区",
    "bortle": 3,
    "bestSeason": "9-3月",
    "altitude": 300,
    "highlights": ["爱尔兰西海岸", "金级暗夜保护区", "极光可见"],
    "description": "爱尔兰西南角的金级暗夜保护区，大西洋海岸零光污染方向可见冬季银河",
    "matchKeys": ["凯里", "Kerry", "凯里暗夜"]
  },
  {
    "id": 21,
    "name": "日利采星空公园",
    "nameEn": "Zselic Starry Sky Park",
    "country": "匈牙利",
    "region": "欧洲",
    "lat": 46.233,
    "lng": 17.683,
    "type": "国际暗夜公园",
    "bortle": 3,
    "bestSeason": "6-9月",
    "altitude": 280,
    "highlights": ["欧洲首批暗夜公园", "天文学校", "森林星空"],
    "description": "匈牙利南部的暗夜公园，欧洲最早获IDA认证的暗夜公园之一",
    "matchKeys": ["日利采", "Zselic", "兹塞利茨"]
  },
  {
    "id": 22,
    "name": "南比利牛斯天文台",
    "nameEn": "Pic du Midi Observatory",
    "country": "法国",
    "region": "欧洲",
    "lat": 42.937,
    "lng": 0.142,
    "type": "暗夜保护区",
    "bortle": 1,
    "bestSeason": "6-9月",
    "altitude": 2877,
    "highlights": ["比利牛斯之巅", "天文台住宿", "日冕观测"],
    "description": "法国比利牛斯山巅的天文台，可夜宿山顶在2877米高处欣赏暗夜星空",
    "matchKeys": ["南比利牛斯", "Pic du Midi", "比利牛斯天文台"]
  },
  {
    "id": 23,
    "name": "韦斯特哈弗兰暗夜公园",
    "nameEn": "Westhavelland Dark Sky Reserve",
    "country": "德国",
    "region": "欧洲",
    "lat": 52.716,
    "lng": 12.233,
    "type": "暗夜保护区",
    "bortle": 3,
    "bestSeason": "6-10月",
    "altitude": 30,
    "highlights": ["德国首个暗夜保护区", "柏林近郊", "湿地暗夜"],
    "description": "德国首个获认证的暗夜保护区，距柏林仅70公里的低地湿地暗夜天空",
    "matchKeys": ["韦斯特哈弗兰", "Westhavelland"]
  },
  {
    "id": 24,
    "name": "拉普兰",
    "nameEn": "Lapland",
    "country": "芬兰",
    "region": "欧洲",
    "lat": 68.5,
    "lng": 27.0,
    "type": "观星胜地",
    "bortle": 2,
    "bestSeason": "9-3月",
    "altitude": 300,
    "highlights": ["北极光", "极夜星空", "驯鹿雪橇"],
    "description": "北极圈内的芬兰拉普兰，冬季极夜中观赏极光和星空的绝佳之地",
    "matchKeys": ["拉普兰", "Lapland", "芬兰极光"]
  },
  {
    "id": 25,
    "name": "瓦迪拉姆",
    "nameEn": "Wadi Rum",
    "country": "约旦",
    "region": "亚洲",
    "lat": 29.572,
    "lng": 35.421,
    "type": "观星胜地",
    "bortle": 2,
    "bestSeason": "全年",
    "altitude": 950,
    "highlights": ["月亮谷", "贝都因营地", "沙漠星空"],
    "description": "约旦\"月亮谷\"沙漠中的壮阔星空，红色岩石峡谷上方银河璀璨",
    "matchKeys": ["瓦迪拉姆", "Wadi Rum", "月亮谷"]
  },
  {
    "id": 26,
    "name": "乌鲁鲁-卡塔丘塔",
    "nameEn": "Uluru-Kata Tjuta",
    "country": "澳大利亚",
    "region": "大洋洲",
    "lat": -25.345,
    "lng": 131.036,
    "type": "观星胜地",
    "bortle": 1,
    "bestSeason": "4-10月",
    "altitude": 460,
    "highlights": ["乌鲁鲁巨岩", "原住民星空文化", "南天银河"],
    "description": "澳大利亚红色中心的地标巨岩，原住民拥有数万年的星空文化传承",
    "matchKeys": ["乌鲁鲁", "Uluru", "艾尔斯岩"]
  },
  {
    "id": 27,
    "name": "赛丁泉天文台",
    "nameEn": "Siding Spring Observatory",
    "country": "澳大利亚",
    "region": "大洋洲",
    "lat": -31.277,
    "lng": 149.066,
    "type": "天文台区域",
    "bortle": 2,
    "bestSeason": "3-10月",
    "altitude": 1165,
    "highlights": ["AAT望远镜", "澳大利亚主要天文台", "库纳巴拉布兰"],
    "description": "澳大利亚最重要的光学天文台，新南威尔士州瓦伦本格尔山上的暗夜之巅",
    "matchKeys": ["赛丁泉", "Siding Spring", "澳大利亚天文台"]
  },
  {
    "id": 28,
    "name": "阿里暗夜公园",
    "nameEn": "Ali Dark Sky Park",
    "country": "中国",
    "region": "亚洲",
    "lat": 32.326,
    "lng": 80.026,
    "type": "国际暗夜公园",
    "bortle": 1,
    "bestSeason": "6-10月",
    "altitude": 4270,
    "highlights": ["中国首个暗夜公园", "阿里天文台", "西藏星空"],
    "description": "中国首个获IDA认证的暗夜公园，西藏阿里地区海拔4270米的极致暗夜",
    "matchKeys": ["阿里暗夜", "Ali Dark Sky", "阿里天文台"]
  },
  {
    "id": 29,
    "name": "那曲暗夜公园",
    "nameEn": "Nagqu Dark Sky Park",
    "country": "中国",
    "region": "亚洲",
    "lat": 31.476,
    "lng": 92.051,
    "type": "暗夜保护区",
    "bortle": 1,
    "bestSeason": "6-10月",
    "altitude": 4500,
    "highlights": ["藏北高原", "野生动物", "高海拔暗夜"],
    "description": "西藏那曲高海拔暗夜公园，藏北无人区边缘的极致黑暗天空",
    "matchKeys": ["那曲暗夜", "Nagqu", "那曲"]
  },
  {
    "id": 30,
    "name": "野柏滩暗夜公园",
    "nameEn": "Yebotan Dark Sky Park",
    "country": "中国",
    "region": "亚洲",
    "lat": 37.370,
    "lng": 97.731,
    "type": "暗夜保护区",
    "bortle": 1,
    "bestSeason": "5-10月",
    "altitude": 2800,
    "highlights": ["青海暗夜", "冷湖天文基地", "柴达木盆地"],
    "description": "青海冷湖镇附近的暗夜公园，依托中国重要天文台址的低光污染区域",
    "matchKeys": ["野柏滩", "Yebotan", "冷湖暗夜"]
  },
  {
    "id": 31,
    "name": "库布齐沙漠",
    "nameEn": "Kubuqi Desert",
    "country": "中国",
    "region": "亚洲",
    "lat": 40.5,
    "lng": 109.9,
    "type": "观星胜地",
    "bortle": 2,
    "bestSeason": "5-10月",
    "altitude": 1050,
    "highlights": ["距北京最近沙漠", "沙漠露营", "银河拱桥"],
    "description": "内蒙古距北京最近的沙漠，沙丘上露营观星体验独特的暗夜星空",
    "matchKeys": ["库布齐", "Kubuqi", "库布其"]
  },
  {
    "id": 32,
    "name": "梅里雪山",
    "nameEn": "Meili Snow Mountain",
    "country": "中国",
    "region": "亚洲",
    "lat": 28.433,
    "lng": 98.763,
    "type": "观星胜地",
    "bortle": 2,
    "bestSeason": "10-5月",
    "altitude": 3400,
    "highlights": ["卡瓦格博峰", "日照金山", "雪山银河"],
    "description": "云南藏区神山，雪山之上的银河拱桥与日照金山同为摄影师朝圣目标",
    "matchKeys": ["梅里雪山", "Meili", "卡瓦格博"]
  },
  {
    "id": 33,
    "name": "纳木错",
    "nameEn": "Namtso Lake",
    "country": "中国",
    "region": "亚洲",
    "lat": 30.700,
    "lng": 90.533,
    "type": "观星胜地",
    "bortle": 1,
    "bestSeason": "5-10月",
    "altitude": 4718,
    "highlights": ["圣湖星空", "念青唐古拉", "湖面银河倒影"],
    "description": "西藏三大圣湖之一，海拔4718米的湖面倒映满天繁星蔚为壮观",
    "matchKeys": ["纳木错", "Namtso", "纳木措"]
  },
  {
    "id": 34,
    "name": "青海湖",
    "nameEn": "Qinghai Lake",
    "country": "中国",
    "region": "亚洲",
    "lat": 36.917,
    "lng": 100.150,
    "type": "观星胜地",
    "bortle": 3,
    "bestSeason": "6-9月",
    "altitude": 3196,
    "highlights": ["中国最大内陆湖", "湖畔银河", "油菜花季"],
    "description": "中国最大的内陆咸水湖，夏季湖畔远离城市光污染可见壮观银河",
    "matchKeys": ["青海湖", "Qinghai Lake"]
  },
  {
    "id": 35,
    "name": "塔克拉玛干沙漠",
    "nameEn": "Taklamakan Desert",
    "country": "中国",
    "region": "亚洲",
    "lat": 39.0,
    "lng": 83.0,
    "type": "观星胜地",
    "bortle": 1,
    "bestSeason": "5-10月",
    "altitude": 1100,
    "highlights": ["中国最大沙漠", "极低光污染", "沙漠公路"],
    "description": "中国最大沙漠腹地几乎零光污染，沿沙漠公路可在绝对黑暗中观星",
    "matchKeys": ["塔克拉玛干", "Taklamakan"]
  },
  {
    "id": 36,
    "name": "阿勒泰",
    "nameEn": "Altay",
    "country": "中国",
    "region": "亚洲",
    "lat": 47.850,
    "lng": 88.131,
    "type": "观星胜地",
    "bortle": 2,
    "bestSeason": "6-10月",
    "altitude": 800,
    "highlights": ["喀纳斯", "图瓦人村落", "北疆星空"],
    "description": "新疆阿勒泰地区拥有中国北方高纬度最佳暗夜条件，喀纳斯湖畔星空迷人",
    "matchKeys": ["阿勒泰", "Altay", "喀纳斯"]
  },
  {
    "id": 37,
    "name": "南比利牛斯暗夜保护区",
    "nameEn": "Pic du Midi Dark Sky Reserve",
    "country": "法国",
    "region": "欧洲",
    "lat": 42.850,
    "lng": 0.100,
    "type": "暗夜保护区",
    "bortle": 2,
    "bestSeason": "6-9月",
    "altitude": 1500,
    "highlights": ["法国最大暗夜保护区", "比利牛斯国家公园", "高山草甸"],
    "description": "以南比利牛斯天文台为核心的法国最大暗夜保护区，覆盖3000平方公里山区",
    "matchKeys": ["南比利牛斯暗夜", "Pic du Midi Reserve"]
  },
  {
    "id": 38,
    "name": "马纳斯卢保护区",
    "nameEn": "Manaslu Conservation Area",
    "country": "尼泊尔",
    "region": "亚洲",
    "lat": 28.550,
    "lng": 84.560,
    "type": "观星胜地",
    "bortle": 1,
    "bestSeason": "10-4月",
    "altitude": 3500,
    "highlights": ["喜马拉雅星空", "雪山银河", "高海拔徒步"],
    "description": "尼泊尔喜马拉雅山区的极致暗夜，雪峰之间银河横贯天际",
    "matchKeys": ["马纳斯卢", "Manaslu", "喜马拉雅观星"]
  },
  {
    "id": 39,
    "name": "麦克唐奈尔山脉",
    "nameEn": "MacDonnell Ranges",
    "country": "澳大利亚",
    "region": "大洋洲",
    "lat": -23.700,
    "lng": 133.870,
    "type": "观星胜地",
    "bortle": 1,
    "bestSeason": "4-10月",
    "altitude": 600,
    "highlights": ["澳大利亚红色中心", "爱丽丝泉", "南天深空"],
    "description": "澳大利亚中部内陆的古老山脉，远离一切城市灯光的南天深空观测地",
    "matchKeys": ["麦克唐奈尔", "MacDonnell", "爱丽丝泉暗夜"]
  },
  {
    "id": 40,
    "name": "基律纳",
    "nameEn": "Kiruna",
    "country": "瑞典",
    "region": "欧洲",
    "lat": 67.858,
    "lng": 20.225,
    "type": "观星胜地",
    "bortle": 3,
    "bestSeason": "10-3月",
    "altitude": 530,
    "highlights": ["北极光", "冰酒店", "北极圈小镇"],
    "description": "瑞典最北部的城市，北极圈内观赏极光和冬季星空的经典目的地",
    "matchKeys": ["基律纳", "Kiruna", "瑞典极光"]
  },
  {
    "id": 41,
    "name": "阿布辛贝",
    "nameEn": "Abu Simbel",
    "country": "埃及",
    "region": "非洲",
    "lat": 22.337,
    "lng": 31.626,
    "type": "观星胜地",
    "bortle": 2,
    "bestSeason": "9-4月",
    "altitude": 180,
    "highlights": ["古埃及神庙", "撒哈拉边缘", "尼罗河上游"],
    "description": "埃及南部沙漠深处的古代神庙遗址，远离城市灯光的撒哈拉边缘暗夜",
    "matchKeys": ["阿布辛贝", "Abu Simbel"]
  },
  {
    "id": 42,
    "name": "头灯国际暗夜公园",
    "nameEn": "Headlands International Dark Sky Park",
    "country": "美国",
    "region": "北美洲",
    "lat": 45.758,
    "lng": -84.760,
    "type": "国际暗夜公园",
    "bortle": 2,
    "bestSeason": "5-10月",
    "altitude": 180,
    "highlights": ["密歇根暗夜", "麦基诺海峡", "IDA金级认证"],
    "description": "密歇根州北部获IDA金级认证的暗夜公园，毗邻麦基诺海峡的原始暗夜天空",
    "matchKeys": ["头灯暗夜", "Headlands", "密歇根暗夜"]
  },
  {
    "id": 43,
    "name": "宇宙营地",
    "nameEn": "Cosmic Campground",
    "country": "美国",
    "region": "北美洲",
    "lat": 33.505,
    "lng": -108.953,
    "type": "国际暗夜公园",
    "bortle": 1,
    "bestSeason": "4-10月",
    "altitude": 1890,
    "highlights": ["美国首个IDA暗夜圣殿", "吉拉国家森林", "极致黑暗"],
    "description": "新墨西哥州吉拉国家森林中的IDA暗夜圣殿，美国本土最黑暗的夜空之一",
    "matchKeys": ["宇宙营地", "Cosmic Campground", "吉拉暗夜"]
  },
  {
    "id": 44,
    "name": "弗拉格斯塔夫",
    "nameEn": "Flagstaff",
    "country": "美国",
    "region": "北美洲",
    "lat": 35.199,
    "lng": -111.651,
    "type": "暗夜社区",
    "bortle": 4,
    "bestSeason": "3-10月",
    "altitude": 2106,
    "highlights": ["世界首个暗夜社区", "洛厄尔天文台", "暗夜照明法规"],
    "description": "2001年成为世界首个国际暗夜社区，拥有洛厄尔天文台和严格的照明法规",
    "matchKeys": ["弗拉格斯塔夫", "Flagstaff", "洛厄尔天文台"]
  },
  {
    "id": 45,
    "name": "默恩暗夜公园",
    "nameEn": "Møn Dark Sky Park",
    "country": "丹麦",
    "region": "欧洲",
    "lat": 54.983,
    "lng": 12.350,
    "type": "国际暗夜公园",
    "bortle": 3,
    "bestSeason": "8-4月",
    "altitude": 20,
    "highlights": ["白垩悬崖", "北欧暗夜公园", "丹麦唯一IDA认证"],
    "description": "丹麦默恩岛上的国际暗夜公园，白垩悬崖海岸上方的北欧星空别具特色",
    "matchKeys": ["默恩", "Møn", "丹麦暗夜"]
  },
  {
    "id": 46,
    "name": "阿尔克瓦暗夜保护区",
    "nameEn": "Alqueva Dark Sky Reserve",
    "country": "葡萄牙",
    "region": "欧洲",
    "lat": 38.200,
    "lng": -7.550,
    "type": "暗夜保护区",
    "bortle": 2,
    "bestSeason": "5-10月",
    "altitude": 200,
    "highlights": ["世界首个星光旅游认证地", "阿连特茹", "湖畔星空"],
    "description": "葡萄牙阿连特茹地区全球首个获星光旅游认证的暗夜保护区，阿尔克瓦湖畔繁星如织",
    "matchKeys": ["阿尔克瓦", "Alqueva", "葡萄牙暗夜"]
  },
  {
    "id": 47,
    "name": "勒恩生物圈保护区",
    "nameEn": "Rhön Biosphere Reserve",
    "country": "德国",
    "region": "欧洲",
    "lat": 50.500,
    "lng": 10.000,
    "type": "暗夜保护区",
    "bortle": 3,
    "bestSeason": "6-10月",
    "altitude": 600,
    "highlights": ["联合国教科文组织生物圈", "德国中部暗夜", "天文科普"],
    "description": "德国中部联合国教科文组织生物圈保护区，结合暗夜保护与生态教育的典范",
    "matchKeys": ["勒恩", "Rhön", "Rhon", "莱恩"]
  },
  {
    "id": 48,
    "name": "塞文国家公园",
    "nameEn": "Cévennes National Park",
    "country": "法国",
    "region": "欧洲",
    "lat": 44.300,
    "lng": 3.600,
    "type": "暗夜保护区",
    "bortle": 2,
    "bestSeason": "5-10月",
    "altitude": 900,
    "highlights": ["法国最大陆地暗夜保护区", "地中海气候", "世界遗产"],
    "description": "法国南部塞文山脉的暗夜保护区，面积达3500平方公里，地中海气候晴夜多",
    "matchKeys": ["塞文", "Cévennes", "Cevennes"]
  },
  {
    "id": 49,
    "name": "墨累河暗夜保护区",
    "nameEn": "River Murray International Dark Sky Reserve",
    "country": "澳大利亚",
    "region": "大洋洲",
    "lat": -35.100,
    "lng": 139.350,
    "type": "暗夜保护区",
    "bortle": 2,
    "bestSeason": "3-10月",
    "altitude": 50,
    "highlights": ["南澳暗夜保护区", "墨累河", "原住民天文"],
    "description": "南澳大利亚墨累河沿岸的暗夜保护区，融合原住民天文知识与现代观星体验",
    "matchKeys": ["墨累河", "River Murray", "南澳暗夜"]
  },
  {
    "id": 50,
    "name": "梅甘蒂克山国际暗夜保护区",
    "nameEn": "Mont-Mégantic International Dark Sky Reserve",
    "country": "加拿大",
    "region": "北美洲",
    "lat": 45.455,
    "lng": -71.152,
    "type": "暗夜保护区",
    "bortle": 3,
    "bestSeason": "5-10月",
    "altitude": 1105,
    "highlights": ["世界首个暗夜保护区", "魁北克天文台", "暗夜保护先驱"],
    "description": "2007年成为世界首个国际暗夜保护区，魁北克东部山区开创了暗夜保护的先河",
    "matchKeys": ["梅甘蒂克", "Mont-Mégantic", "Mont Megantic"]
  },
  {
    "id": 51,
    "name": "瓦伦本格尔国家公园",
    "nameEn": "Warrumbungle National Park",
    "country": "澳大利亚",
    "region": "大洋洲",
    "lat": -31.300,
    "lng": 148.983,
    "type": "国际暗夜公园",
    "bortle": 2,
    "bestSeason": "3-10月",
    "altitude": 700,
    "highlights": ["澳大利亚首个暗夜公园", "火山地貌", "赛丁泉天文台毗邻"],
    "description": "澳大利亚首个IDA认证暗夜公园，紧邻赛丁泉天文台的火山山脉暗夜",
    "matchKeys": ["瓦伦本格尔", "Warrumbungle", "沃伦本格尔"]
  },
  {
    "id": 52,
    "name": "可可西里",
    "nameEn": "Hoh Xil",
    "country": "中国",
    "region": "亚洲",
    "lat": 35.250,
    "lng": 92.440,
    "type": "暗夜保护区",
    "bortle": 1,
    "bestSeason": "6-9月",
    "altitude": 4600,
    "highlights": ["无人区", "藏羚羊", "世界自然遗产"],
    "description": "青藏高原腹地的无人区，作为世界自然遗产拥有地球上最原始的暗夜天空之一",
    "matchKeys": ["可可西里", "Hoh Xil", "可可西里暗夜"]
  },
  {
    "id": 53,
    "name": "珠峰大本营",
    "nameEn": "Everest Base Camp",
    "country": "中国",
    "region": "亚洲",
    "lat": 28.143,
    "lng": 86.853,
    "type": "观星胜地",
    "bortle": 1,
    "bestSeason": "10-4月",
    "altitude": 5200,
    "highlights": ["世界最高峰", "极高海拔观星", "珠峰银河"],
    "description": "珠穆朗玛峰北坡大本营，海拔5200米的极致暗夜使银河触手可及",
    "matchKeys": ["珠峰大本营", "Everest Base Camp", "珠峰观星"]
  },
  {
    "id": 54,
    "name": "阿里札达土林",
    "nameEn": "Zanda Earth Forest",
    "country": "中国",
    "region": "亚洲",
    "lat": 31.480,
    "lng": 79.800,
    "type": "观星胜地",
    "bortle": 1,
    "bestSeason": "5-10月",
    "altitude": 3750,
    "highlights": ["土林地貌", "古格王朝遗址", "极西暗夜"],
    "description": "西藏阿里札达县的奇幻土林地貌上方，古格遗址与银河交相辉映",
    "matchKeys": ["札达", "Zanda", "札达土林", "古格"]
  },
  {
    "id": 55,
    "name": "赛里木湖",
    "nameEn": "Sayram Lake",
    "country": "中国",
    "region": "亚洲",
    "lat": 44.600,
    "lng": 81.170,
    "type": "观星胜地",
    "bortle": 2,
    "bestSeason": "6-9月",
    "altitude": 2073,
    "highlights": ["天山明珠", "高山湖泊", "湖面倒影银河"],
    "description": "新疆天山西端的高山湖泊，远离城市光污染的湖面映射出清晰的银河倒影",
    "matchKeys": ["赛里木湖", "Sayram", "赛里木"]
  },
  {
    "id": 56,
    "name": "鸣沙山月牙泉",
    "nameEn": "Mingsha Mountain & Crescent Spring",
    "country": "中国",
    "region": "亚洲",
    "lat": 40.081,
    "lng": 94.672,
    "type": "观星胜地",
    "bortle": 3,
    "bestSeason": "5-10月",
    "altitude": 1150,
    "highlights": ["丝绸之路", "沙漠绿洲", "敦煌文化"],
    "description": "甘肃敦煌鸣沙山的沙漠星空与月牙泉交相辉映，丝路古迹上的璀璨银河",
    "matchKeys": ["鸣沙山", "月牙泉", "敦煌观星", "Mingsha"]
  },
  {
    "id": 57,
    "name": "锡林郭勒草原",
    "nameEn": "Xilingol Grassland",
    "country": "中国",
    "region": "亚洲",
    "lat": 44.000,
    "lng": 116.000,
    "type": "观星胜地",
    "bortle": 2,
    "bestSeason": "6-9月",
    "altitude": 1000,
    "highlights": ["内蒙古草原", "蒙古包星空", "北方银河"],
    "description": "内蒙古锡林郭勒大草原，辽阔无遮挡的地平线上银河横跨天际",
    "matchKeys": ["锡林郭勒", "Xilingol", "锡林浩特"]
  },
  {
    "id": 58,
    "name": "稻城亚丁",
    "nameEn": "Daocheng Yading",
    "country": "中国",
    "region": "亚洲",
    "lat": 28.430,
    "lng": 100.050,
    "type": "观星胜地",
    "bortle": 2,
    "bestSeason": "9-5月",
    "altitude": 3750,
    "highlights": ["三神山", "高原海子", "川西暗夜"],
    "description": "四川稻城亚丁三神山下的高原暗夜，雪山与银河共同构成壮美画卷",
    "matchKeys": ["稻城", "亚丁", "Daocheng", "Yading"]
  },
  {
    "id": 59,
    "name": "香格里拉",
    "nameEn": "Shangri-La",
    "country": "中国",
    "region": "亚洲",
    "lat": 27.830,
    "lng": 99.700,
    "type": "观星胜地",
    "bortle": 2,
    "bestSeason": "10-4月",
    "altitude": 3300,
    "highlights": ["松赞林寺", "纳帕海", "滇西北暗夜"],
    "description": "云南香格里拉高原小城，松赞林寺金顶上方的星空宁静而壮美",
    "matchKeys": ["香格里拉", "Shangri-La", "中甸"]
  },
  {
    "id": 60,
    "name": "羊卓雍措",
    "nameEn": "Yamdrok Lake",
    "country": "中国",
    "region": "亚洲",
    "lat": 29.030,
    "lng": 90.730,
    "type": "观星胜地",
    "bortle": 1,
    "bestSeason": "5-10月",
    "altitude": 4441,
    "highlights": ["西藏圣湖", "碧蓝湖水", "银河倒映"],
    "description": "西藏三大圣湖之一，海拔4441米的碧蓝湖面映照出完整的银河拱桥",
    "matchKeys": ["羊卓雍措", "Yamdrok", "羊湖"]
  },
  {
    "id": 61,
    "name": "茫崖翡翠湖",
    "nameEn": "Mangya Emerald Lake",
    "country": "中国",
    "region": "亚洲",
    "lat": 37.850,
    "lng": 90.850,
    "type": "观星胜地",
    "bortle": 1,
    "bestSeason": "5-10月",
    "altitude": 2820,
    "highlights": ["火星营地", "翡翠色盐湖", "柴达木无人区"],
    "description": "青海茫崖市的翡翠色盐湖，柴达木盆地西缘几乎零人烟的极致暗夜",
    "matchKeys": ["茫崖", "Mangya", "茫崖翡翠湖", "火星营地"]
  },
  {
    "id": 62,
    "name": "圣佩德罗-德阿塔卡马镇",
    "nameEn": "San Pedro de Atacama",
    "country": "智利",
    "region": "南美洲",
    "lat": -22.908,
    "lng": -68.200,
    "type": "观星胜地",
    "bortle": 2,
    "bestSeason": "全年",
    "altitude": 2408,
    "highlights": ["天文旅游小镇", "月亮谷", "沙漠绿洲"],
    "description": "阿塔卡马沙漠中的观星旅游小镇，多家天文旅行社提供专业观星导览",
    "matchKeys": ["圣佩德罗", "San Pedro de Atacama", "圣彼得"]
  },
  {
    "id": 63,
    "name": "乌尤尼盐沼",
    "nameEn": "Salar de Uyuni",
    "country": "玻利维亚",
    "region": "南美洲",
    "lat": -20.134,
    "lng": -67.489,
    "type": "观星胜地",
    "bortle": 1,
    "bestSeason": "1-4月",
    "altitude": 3656,
    "highlights": ["天空之镜", "银河倒影", "世界最大盐沼"],
    "description": "玻利维亚乌尤尼盐沼雨季时薄水层完美倒映银河，创造出无边的天空之镜",
    "matchKeys": ["乌尤尼", "Uyuni", "天空之镜"]
  },
  {
    "id": 64,
    "name": "科尔卡峡谷",
    "nameEn": "Colca Canyon",
    "country": "秘鲁",
    "region": "南美洲",
    "lat": -15.608,
    "lng": -71.880,
    "type": "观星胜地",
    "bortle": 2,
    "bestSeason": "4-11月",
    "altitude": 3400,
    "highlights": ["安第斯深谷", "安第斯神鹫", "印加梯田"],
    "description": "秘鲁安第斯山脉中世界最深峡谷之一，高海拔干燥气候带来清澈暗夜",
    "matchKeys": ["科尔卡", "Colca", "科尔卡峡谷"]
  },
  {
    "id": 65,
    "name": "普特雷",
    "nameEn": "Putre",
    "country": "智利",
    "region": "南美洲",
    "lat": -18.197,
    "lng": -69.558,
    "type": "观星胜地",
    "bortle": 1,
    "bestSeason": "全年",
    "altitude": 3500,
    "highlights": ["阿塔卡马高原", "火山群", "安第斯星空"],
    "description": "智利北部高原小镇，安第斯火山群环绕下的极致暗夜观星点",
    "matchKeys": ["普特雷", "Putre"]
  },
  {
    "id": 66,
    "name": "乌马瓦卡峡谷",
    "nameEn": "Quebrada de Humahuaca",
    "country": "阿根廷",
    "region": "南美洲",
    "lat": -23.200,
    "lng": -65.350,
    "type": "观星胜地",
    "bortle": 2,
    "bestSeason": "4-10月",
    "altitude": 2940,
    "highlights": ["七色山", "世界文化遗产", "安第斯干旱暗夜"],
    "description": "阿根廷西北部世界遗产峡谷，干燥的安第斯气候提供出色的观星条件",
    "matchKeys": ["乌马瓦卡", "Humahuaca", "胡马瓦卡"]
  },
  {
    "id": 67,
    "name": "茨瓦卢卡拉哈里保护区",
    "nameEn": "Tswalu Kalahari Reserve",
    "country": "南非",
    "region": "非洲",
    "lat": -27.230,
    "lng": 22.480,
    "type": "观星胜地",
    "bortle": 1,
    "bestSeason": "4-10月",
    "altitude": 1100,
    "highlights": ["南非最大私人保护区", "卡拉哈里沙漠", "野生动物与星空"],
    "description": "南非卡拉哈里沙漠中最大的私人保护区，将野奢生态旅游与极致暗夜结合",
    "matchKeys": ["茨瓦卢", "Tswalu", "卡拉哈里观星"]
  },
  {
    "id": 68,
    "name": "马卡迪卡迪盐沼",
    "nameEn": "Makgadikgadi Pans",
    "country": "博茨瓦纳",
    "region": "非洲",
    "lat": -20.700,
    "lng": 25.200,
    "type": "观星胜地",
    "bortle": 1,
    "bestSeason": "4-10月",
    "altitude": 890,
    "highlights": ["非洲盐沼", "狐獴", "绝对平坦地平线"],
    "description": "博茨瓦纳广袤的白色盐沼，绝对平坦的地平线上360度无遮挡的星空",
    "matchKeys": ["马卡迪卡迪", "Makgadikgadi", "博茨瓦纳盐沼"]
  },
  {
    "id": 69,
    "name": "施皮茨考佩",
    "nameEn": "Spitzkoppe",
    "country": "纳米比亚",
    "region": "非洲",
    "lat": -21.824,
    "lng": 15.195,
    "type": "观星胜地",
    "bortle": 1,
    "bestSeason": "5-10月",
    "altitude": 1100,
    "highlights": ["花岗岩尖峰", "纳米比亚的马特洪峰", "岩石拱门星空"],
    "description": "纳米比亚标志性花岗岩山峰，天然石拱门框出完美的银河构图",
    "matchKeys": ["施皮茨考佩", "Spitzkoppe"]
  },
  {
    "id": 70,
    "name": "德拉肯斯堡山脉",
    "nameEn": "Drakensberg Mountains",
    "country": "南非",
    "region": "非洲",
    "lat": -29.100,
    "lng": 29.400,
    "type": "观星胜地",
    "bortle": 2,
    "bestSeason": "4-9月",
    "altitude": 2000,
    "highlights": ["南非最高山脉", "世界遗产", "高山暗夜"],
    "description": "南非德拉肯斯堡世界遗产山脉，冬季干燥晴朗的高山夜空繁星璀璨",
    "matchKeys": ["德拉肯斯堡", "Drakensberg", "龙山"]
  },
  {
    "id": 71,
    "name": "奇里卡瓦国家保护区",
    "nameEn": "Chiricahua National Monument",
    "country": "美国",
    "region": "北美洲",
    "lat": -31.950,
    "lng": -109.350,
    "type": "观星胜地",
    "bortle": 2,
    "bestSeason": "3-10月",
    "altitude": 1650,
    "highlights": ["石林奇观", "亚利桑那暗夜", "暗夜观鸟"],
    "description": "亚利桑那州东南部的奇特石林地貌，远离城市灯光的暗夜天空",
    "matchKeys": ["奇里卡瓦", "Chiricahua"]
  },
  {
    "id": 72,
    "name": "大弯国家公园",
    "nameEn": "Big Bend National Park",
    "country": "美国",
    "region": "北美洲",
    "lat": 29.250,
    "lng": -103.250,
    "type": "国际暗夜公园",
    "bortle": 2,
    "bestSeason": "10-4月",
    "altitude": 550,
    "highlights": ["德州暗夜", "奇索斯山", "里奥格兰德河"],
    "description": "德克萨斯州西部IDA认证暗夜公园，奇索斯山与里奥格兰德河上方的壮阔星空",
    "matchKeys": ["大弯", "Big Bend", "德州暗夜"]
  },
  {
    "id": 73,
    "name": "大盆地国家公园",
    "nameEn": "Great Basin National Park",
    "country": "美国",
    "region": "北美洲",
    "lat": 38.983,
    "lng": -114.220,
    "type": "国际暗夜公园",
    "bortle": 1,
    "bestSeason": "5-10月",
    "altitude": 2060,
    "highlights": ["内华达暗夜", "雷曼溶洞", "布里斯尔科恩松"],
    "description": "内华达州偏远的大盆地国家公园，美国本土最暗的夜空之一",
    "matchKeys": ["大盆地", "Great Basin"]
  },
  {
    "id": 74,
    "name": "查科文化国家历史公园",
    "nameEn": "Chaco Culture National Historical Park",
    "country": "美国",
    "region": "北美洲",
    "lat": 36.060,
    "lng": -107.960,
    "type": "国际暗夜公园",
    "bortle": 2,
    "bestSeason": "4-10月",
    "altitude": 1890,
    "highlights": ["普韦布洛遗址", "古代天文标记", "IDA暗夜公园"],
    "description": "新墨西哥州古普韦布洛人天文遗址，千年前的太阳标记与现代暗夜保护交汇",
    "matchKeys": ["查科", "Chaco", "查科文化"]
  },
  {
    "id": 75,
    "name": "沃特顿-冰川国际和平公园",
    "nameEn": "Waterton-Glacier International Peace Park",
    "country": "美国/加拿大",
    "region": "北美洲",
    "lat": 48.750,
    "lng": -113.780,
    "type": "国际暗夜公园",
    "bortle": 2,
    "bestSeason": "6-9月",
    "altitude": 1500,
    "highlights": ["跨国暗夜公园", "落基山冰川", "暗夜保护合作"],
    "description": "横跨美国蒙大拿与加拿大艾伯塔的跨国暗夜公园，冰川地貌上的原始暗夜",
    "matchKeys": ["沃特顿", "Waterton", "冰川公园", "Glacier"]
  },
  {
    "id": 76,
    "name": "麦克唐纳天文台",
    "nameEn": "McDonald Observatory",
    "country": "美国",
    "region": "北美洲",
    "lat": 30.672,
    "lng": -104.022,
    "type": "天文台区域",
    "bortle": 2,
    "bestSeason": "全年",
    "altitude": 2070,
    "highlights": ["霍比-艾伯利望远镜", "星空晚会", "德州暗夜"],
    "description": "德克萨斯大学的麦克唐纳天文台，公众星空晚会项目享誉全美",
    "matchKeys": ["麦克唐纳天文台", "McDonald Observatory"]
  },
  {
    "id": 77,
    "name": "埃斯特雷马杜拉",
    "nameEn": "Extremadura",
    "country": "西班牙",
    "region": "欧洲",
    "lat": 39.200,
    "lng": -6.150,
    "type": "暗夜保护区",
    "bortle": 2,
    "bestSeason": "5-10月",
    "altitude": 400,
    "highlights": ["西班牙人口最少地区", "星光旅游认证", "蒙弗拉圭"],
    "description": "西班牙人口密度最低的地区之一，多处获星光旅游认证的暗夜观星点",
    "matchKeys": ["埃斯特雷马杜拉", "Extremadura"]
  },
  {
    "id": 78,
    "name": "特罗姆瑟",
    "nameEn": "Tromsø",
    "country": "挪威",
    "region": "欧洲",
    "lat": 69.649,
    "lng": 18.956,
    "type": "观星胜地",
    "bortle": 4,
    "bestSeason": "10-3月",
    "altitude": 10,
    "highlights": ["北极光之都", "极夜", "峡湾极光"],
    "description": "挪威\"北极光之都\"，北极圈内峡湾上空的极光表演是全球极光爱好者首选目的地",
    "matchKeys": ["特罗姆瑟", "Tromsø", "Tromso", "挪威极光"]
  },
  {
    "id": 79,
    "name": "苏格兰高地",
    "nameEn": "Scottish Highlands",
    "country": "英国",
    "region": "欧洲",
    "lat": 57.500,
    "lng": -5.000,
    "type": "观星胜地",
    "bortle": 3,
    "bestSeason": "9-3月",
    "altitude": 300,
    "highlights": ["英国最暗区域", "高地湖泊", "偶见极光"],
    "description": "苏格兰高地是英国本土光污染最低的大面积区域，冬夜偶有极光出现",
    "matchKeys": ["苏格兰高地", "Scottish Highlands", "高地暗夜"]
  },
  {
    "id": 80,
    "name": "拉达克",
    "nameEn": "Ladakh",
    "country": "印度",
    "region": "亚洲",
    "lat": 34.160,
    "lng": 77.580,
    "type": "观星胜地",
    "bortle": 1,
    "bestSeason": "6-10月",
    "altitude": 3500,
    "highlights": ["小西藏", "班公错", "汉勒天文台"],
    "description": "印度拉达克高原被称为\"小西藏\"，汉勒天文台所在地拥有亚洲最佳暗夜条件之一",
    "matchKeys": ["拉达克", "Ladakh", "列城", "汉勒"]
  },
  {
    "id": 81,
    "name": "瓦罕走廊",
    "nameEn": "Wakhan Corridor",
    "country": "阿富汗/塔吉克斯坦",
    "region": "亚洲",
    "lat": 37.050,
    "lng": 72.500,
    "type": "观星胜地",
    "bortle": 1,
    "bestSeason": "6-9月",
    "altitude": 3500,
    "highlights": ["帕米尔高原", "地球最偏远地区", "极致零光污染"],
    "description": "帕米尔高原上地球最偏远的角落之一，完全无人工照明的极致原始暗夜",
    "matchKeys": ["瓦罕走廊", "Wakhan", "帕米尔暗夜"]
  },
  {
    "id": 82,
    "name": "戈壁沙漠",
    "nameEn": "Gobi Desert",
    "country": "蒙古",
    "region": "亚洲",
    "lat": 43.500,
    "lng": 105.000,
    "type": "观星胜地",
    "bortle": 1,
    "bestSeason": "5-10月",
    "altitude": 1200,
    "highlights": ["蒙古包露营", "恐龙化石谷", "亚洲最低光污染"],
    "description": "蒙古南部戈壁大漠，广袤无垠的荒漠拥有亚洲光污染最低的夜空之一",
    "matchKeys": ["戈壁", "Gobi", "蒙古暗夜"]
  },
  {
    "id": 83,
    "name": "大堡礁岛",
    "nameEn": "Great Barrier Island",
    "country": "新西兰",
    "region": "大洋洲",
    "lat": -36.195,
    "lng": 175.425,
    "type": "暗夜保护区",
    "bortle": 2,
    "bestSeason": "4-9月",
    "altitude": 50,
    "highlights": ["新西兰暗夜岛", "无电网区域", "海岛暗夜"],
    "description": "新西兰北岛东北外海的暗夜保护区岛屿，大片区域无电网供电实现自然黑暗",
    "matchKeys": ["大堡礁岛", "Great Barrier Island", "Aotea"]
  },
  {
    "id": 84,
    "name": "托伦斯荒地暗夜保护区",
    "nameEn": "Torrance Barrens Dark-Sky Preserve",
    "country": "加拿大",
    "region": "北美洲",
    "lat": 44.950,
    "lng": -79.533,
    "type": "暗夜保护区",
    "bortle": 3,
    "bestSeason": "5-10月",
    "altitude": 300,
    "highlights": ["加拿大首个暗夜保护区", "马斯科卡", "花岗岩荒地"],
    "description": "1999年成为加拿大首个永久暗夜保护区，安大略省马斯科卡地区的花岗岩荒地",
    "matchKeys": ["托伦斯荒地", "Torrance Barrens", "马斯科卡暗夜"]
  },
  {
    "id": 85,
    "name": "屠杀边缘荒野",
    "nameEn": "Massacre Rim Wilderness",
    "country": "美国",
    "region": "北美洲",
    "lat": 41.120,
    "lng": -119.570,
    "type": "暗夜保护区",
    "bortle": 1,
    "bestSeason": "5-10月",
    "altitude": 1700,
    "highlights": ["内华达荒野", "IDA暗夜圣殿", "美国最暗之一"],
    "description": "内华达州西北部的IDA暗夜圣殿，美国本土光污染最低的区域之一",
    "matchKeys": ["屠杀边缘", "Massacre Rim", "内华达暗夜圣殿"]
  },
  {
    "id": 86,
    "name": "边界水域独木舟区",
    "nameEn": "Boundary Waters Canoe Area Wilderness",
    "country": "美国",
    "region": "北美洲",
    "lat": 48.050,
    "lng": -91.500,
    "type": "暗夜保护区",
    "bortle": 2,
    "bestSeason": "6-9月",
    "altitude": 450,
    "highlights": ["明尼苏达荒野", "独木舟露营", "湖面极光"],
    "description": "明尼苏达州北部100万英亩的原始水域荒野，机动禁区内享受纯粹暗夜与极光",
    "matchKeys": ["边界水域", "Boundary Waters", "BWCA"]
  },
  {
    "id": 87,
    "name": "魔岩州立自然区",
    "nameEn": "Enchanted Rock State Natural Area",
    "country": "美国",
    "region": "北美洲",
    "lat": 30.506,
    "lng": -98.820,
    "type": "国际暗夜公园",
    "bortle": 3,
    "bestSeason": "10-4月",
    "altitude": 550,
    "highlights": ["花岗岩穹丘", "德州丘陵", "IDA暗夜公园"],
    "description": "德克萨斯州丘陵地带的巨型花岗岩穹丘，获IDA认证的暗夜公园",
    "matchKeys": ["魔岩", "Enchanted Rock", "德州观星"]
  },
  {
    "id": 88,
    "name": "安萨波雷戈沙漠州立公园",
    "nameEn": "Anza-Borrego Desert State Park",
    "country": "美国",
    "region": "北美洲",
    "lat": 33.050,
    "lng": -116.300,
    "type": "国际暗夜公园",
    "bortle": 2,
    "bestSeason": "10-4月",
    "altitude": 300,
    "highlights": ["加州最大州立公园", "沙漠野花", "IDA暗夜公园"],
    "description": "加利福尼亚州最大的州立公园，科罗拉多沙漠中获IDA认证的黑暗天空",
    "matchKeys": ["安萨波雷戈", "Anza-Borrego", "加州暗夜"]
  },
  {
    "id": 89,
    "name": "科尔岛",
    "nameEn": "Isle of Coll",
    "country": "英国",
    "region": "欧洲",
    "lat": 56.620,
    "lng": -6.520,
    "type": "国际暗夜公园",
    "bortle": 2,
    "bestSeason": "9-3月",
    "altitude": 20,
    "highlights": ["苏格兰离岛", "IDA暗夜社区", "大西洋暗夜"],
    "description": "苏格兰内赫布里底群岛的小岛，英国首个IDA暗夜社区与暗夜岛屿",
    "matchKeys": ["科尔岛", "Isle of Coll", "Coll暗夜"]
  },
  {
    "id": 90,
    "name": "埃克斯穆尔国家公园",
    "nameEn": "Exmoor National Park",
    "country": "英国",
    "region": "欧洲",
    "lat": 51.133,
    "lng": -3.650,
    "type": "暗夜保护区",
    "bortle": 3,
    "bestSeason": "9-3月",
    "altitude": 400,
    "highlights": ["英格兰首个暗夜保护区", "沼泽高地", "英吉利海峡暗夜"],
    "description": "英格兰首个获IDA认证的国际暗夜保护区，德文郡与萨默塞特郡的高沼暗夜",
    "matchKeys": ["埃克斯穆尔", "Exmoor", "英格兰暗夜"]
  },
  {
    "id": 91,
    "name": "特雷温卡星光保护区",
    "nameEn": "Trevinca Starlight Reserve",
    "country": "西班牙",
    "region": "欧洲",
    "lat": 42.250,
    "lng": -6.800,
    "type": "暗夜保护区",
    "bortle": 2,
    "bestSeason": "5-10月",
    "altitude": 1600,
    "highlights": ["加利西亚高山", "星光认证", "伊比利亚暗夜"],
    "description": "西班牙加利西亚地区的高山暗夜保护区，获星光基金会认证的低光污染山区",
    "matchKeys": ["特雷温卡", "Trevinca", "加利西亚暗夜"]
  },
  {
    "id": 92,
    "name": "盈德萤火虫暗夜公园",
    "nameEn": "Yeongyang Firefly Dark Sky Park",
    "country": "韩国",
    "region": "亚洲",
    "lat": 36.533,
    "lng": 129.250,
    "type": "国际暗夜公园",
    "bortle": 3,
    "bestSeason": "5-10月",
    "altitude": 250,
    "highlights": ["亚洲首个IDA暗夜公园", "萤火虫栖息地", "韩国暗夜"],
    "description": "2015年成为亚洲首个IDA认证国际暗夜公园，萤火虫与暗夜星空共存的生态奇观",
    "matchKeys": ["盈德", "英阳", "Yeongyang", "韩国暗夜"]
  },
  {
    "id": 93,
    "name": "纽埃岛",
    "nameEn": "Niue Island",
    "country": "纽埃",
    "region": "大洋洲",
    "lat": -19.054,
    "lng": -169.867,
    "type": "暗夜保护区",
    "bortle": 1,
    "bestSeason": "5-10月",
    "altitude": 30,
    "highlights": ["世界首个暗夜国家", "太平洋珊瑚岛", "全岛零光污染"],
    "description": "2020年成为世界首个整体获暗夜认证的国家，南太平洋珊瑚礁岛上的原始暗夜",
    "matchKeys": ["纽埃", "Niue", "纽埃暗夜"]
  },
  {
    "id": 94,
    "name": "日喀则珠峰星空营地",
    "nameEn": "Shigatse Everest Stargazing Camp",
    "country": "中国",
    "region": "亚洲",
    "lat": 28.800,
    "lng": 87.600,
    "type": "观星胜地",
    "bortle": 1,
    "bestSeason": "10-4月",
    "altitude": 4300,
    "highlights": ["珠峰北坡", "扎什伦布寺", "后藏暗夜"],
    "description": "西藏日喀则地区珠峰北坡方向的观星营地，后藏高原上极低光污染的壮美暗夜",
    "matchKeys": ["日喀则", "Shigatse", "后藏观星"]
  },
  {
    "id": 95,
    "name": "喀什帕米尔高原",
    "nameEn": "Kashgar Pamir Plateau",
    "country": "中国",
    "region": "亚洲",
    "lat": 38.400,
    "lng": 75.200,
    "type": "观星胜地",
    "bortle": 1,
    "bestSeason": "6-10月",
    "altitude": 3600,
    "highlights": ["慕士塔格峰", "中巴公路", "帕米尔星空"],
    "description": "新疆喀什地区帕米尔高原，慕士塔格冰山之父脚下仰望清澈的暗夜星空",
    "matchKeys": ["喀什", "帕米尔", "Kashgar", "慕士塔格"]
  },
  {
    "id": 96,
    "name": "张掖七彩丹霞",
    "nameEn": "Zhangye Danxia",
    "country": "中国",
    "region": "亚洲",
    "lat": 38.920,
    "lng": 100.100,
    "type": "观星胜地",
    "bortle": 3,
    "bestSeason": "5-10月",
    "altitude": 2000,
    "highlights": ["丹霞地貌", "彩色山丘", "河西走廊暗夜"],
    "description": "甘肃张掖七彩丹霞地质公园外围，河西走廊上彩色地貌与银河构成奇幻组合",
    "matchKeys": ["张掖", "Zhangye", "丹霞观星"]
  },
  {
    "id": 97,
    "name": "呼伦贝尔大草原",
    "nameEn": "Hulunbuir Grassland",
    "country": "中国",
    "region": "亚洲",
    "lat": 49.200,
    "lng": 119.700,
    "type": "观星胜地",
    "bortle": 2,
    "bestSeason": "6-9月",
    "altitude": 650,
    "highlights": ["中国最大草原", "额尔古纳河", "北纬49度暗夜"],
    "description": "内蒙古呼伦贝尔大草原，中国最高纬度的辽阔草原上银河低垂至地平线",
    "matchKeys": ["呼伦贝尔", "Hulunbuir", "海拉尔"]
  },
  {
    "id": 98,
    "name": "柴达木雅丹地貌群",
    "nameEn": "Qaidam Yardang Geopark",
    "country": "中国",
    "region": "亚洲",
    "lat": 37.700,
    "lng": 92.800,
    "type": "观星胜地",
    "bortle": 1,
    "bestSeason": "5-10月",
    "altitude": 3050,
    "highlights": ["水上雅丹", "魔鬼城", "柴达木无人区"],
    "description": "青海柴达木盆地的雅丹地貌群，无人区中风蚀地貌与银河交相辉映宛如外星",
    "matchKeys": ["柴达木", "雅丹", "Qaidam", "水上雅丹"]
  },
  {
    "id": 99,
    "name": "甘孜色达喇荣五明佛学院",
    "nameEn": "Seda Larung Gar",
    "country": "中国",
    "region": "亚洲",
    "lat": 32.267,
    "lng": 100.600,
    "type": "观星胜地",
    "bortle": 2,
    "bestSeason": "9-5月",
    "altitude": 4000,
    "highlights": ["红色佛学院", "川西高原", "高海拔暗夜"],
    "description": "四川甘孜色达高原上的壮观佛学院，红房子群落上方的繁星密布令人屏息",
    "matchKeys": ["色达", "甘孜", "Seda", "喇荣五明"]
  },
  {
    "id": 100,
    "name": "丽江玉龙雪山",
    "nameEn": "Yulong Snow Mountain",
    "country": "中国",
    "region": "亚洲",
    "lat": 27.100,
    "lng": 100.233,
    "type": "观星胜地",
    "bortle": 3,
    "bestSeason": "10-4月",
    "altitude": 3100,
    "highlights": ["纳西族文化", "玉龙雪山", "丽江暗夜"],
    "description": "云南丽江古城外围远离灯光处，玉龙雪山银色山峰之上的冬季星空璀璨夺目",
    "matchKeys": ["丽江", "玉龙雪山", "Lijiang", "Yulong"]
  },
  {
    "id": 101,
    "name": "林芝鲁朗",
    "nameEn": "Nyingchi Lulang",
    "country": "中国",
    "region": "亚洲",
    "lat": 29.770,
    "lng": 94.730,
    "type": "观星胜地",
    "bortle": 2,
    "bestSeason": "10-4月",
    "altitude": 3700,
    "highlights": ["南迦巴瓦峰", "林海星空", "西藏江南"],
    "description": "西藏林芝鲁朗林海中南迦巴瓦峰上方的星空，雪山与原始森林构成壮美前景",
    "matchKeys": ["林芝", "鲁朗", "Nyingchi", "南迦巴瓦"]
  },
  {
    "id": 102,
    "name": "伊犁果子沟",
    "nameEn": "Yili Guozigou",
    "country": "中国",
    "region": "亚洲",
    "lat": 44.200,
    "lng": 80.800,
    "type": "观星胜地",
    "bortle": 2,
    "bestSeason": "6-9月",
    "altitude": 1800,
    "highlights": ["天山峡谷", "果子沟大桥", "薰衣草花海"],
    "description": "新疆伊犁河谷果子沟天山深处，远离城市灯光的天山峡谷暗夜澄澈",
    "matchKeys": ["伊犁", "果子沟", "Yili", "Guozigou"]
  },
  {
    "id": 103,
    "name": "酒泉金塔沙漠",
    "nameEn": "Jiuquan Jinta Desert",
    "country": "中国",
    "region": "亚洲",
    "lat": 40.000,
    "lng": 98.900,
    "type": "观星胜地",
    "bortle": 2,
    "bestSeason": "5-10月",
    "altitude": 1300,
    "highlights": ["酒泉卫星发射中心", "巴丹吉林边缘", "航天与星空"],
    "description": "甘肃酒泉金塔沙漠胡杨林区域，中国航天城近旁的河西走廊暗夜星空",
    "matchKeys": ["酒泉", "金塔", "Jiuquan", "巴丹吉林"]
  },
  {
    "id": 104,
    "name": "石垣岛星空保护区",
    "nameEn": "Ishigaki Island Dark Sky",
    "country": "日本",
    "region": "亚洲",
    "lat": 24.400,
    "lng": 124.150,
    "type": "暗夜保护区",
    "bortle": 3,
    "bestSeason": "6-10月",
    "altitude": 10,
    "highlights": ["日本首个星空保护区", "南十字星可见", "八重山群岛"],
    "description": "冲绳石垣岛北部获IDA认证的日本首个星空保护区，低纬度可观测南十字星",
    "matchKeys": ["石垣岛", "Ishigaki", "八重山暗夜"]
  },
  {
    "id": 105,
    "name": "冲绳国头村",
    "nameEn": "Kunigami Village, Okinawa",
    "country": "日本",
    "region": "亚洲",
    "lat": 26.750,
    "lng": 128.200,
    "type": "观星胜地",
    "bortle": 3,
    "bestSeason": "6-10月",
    "altitude": 50,
    "highlights": ["山原森林", "冲绳北部暗夜", "亚热带星空"],
    "description": "冲绳本岛北部国头村山原森林地区，远离那霸光污染的亚热带海岛暗夜",
    "matchKeys": ["国头村", "Kunigami", "冲绳暗夜", "山原"]
  },
  {
    "id": 106,
    "name": "奄美大島",
    "nameEn": "Amami Oshima",
    "country": "日本",
    "region": "亚洲",
    "lat": 28.380,
    "lng": 129.500,
    "type": "观星胜地",
    "bortle": 3,
    "bestSeason": "5-10月",
    "altitude": 50,
    "highlights": ["世界自然遗产", "亚热带暗夜", "天の川観測"],
    "description": "鹿儿岛县奄美大岛，世界自然遗产的原始森林岛屿上空暗夜条件优越",
    "matchKeys": ["奄美大島", "奄美大岛", "Amami Oshima"]
  },
  {
    "id": 107,
    "name": "智异山天文台",
    "nameEn": "Jirisan Observatory",
    "country": "韩国",
    "region": "亚洲",
    "lat": 35.330,
    "lng": 127.730,
    "type": "天文台区域",
    "bortle": 3,
    "bestSeason": "9-4月",
    "altitude": 1200,
    "highlights": ["韩国最高山脉之一", "国立公园", "南部暗夜"],
    "description": "韩国智异山国立公园山区天文台，韩国南部最佳暗夜观测点之一",
    "matchKeys": ["智异山", "Jirisan", "지리산"]
  },
  {
    "id": 108,
    "name": "蔚珍天文科学馆",
    "nameEn": "Uljin Astronomical Science Museum",
    "country": "韩国",
    "region": "亚洲",
    "lat": 36.933,
    "lng": 129.350,
    "type": "天文台区域",
    "bortle": 3,
    "bestSeason": "9-4月",
    "altitude": 300,
    "highlights": ["东海岸暗夜", "天文科普", "韩国东部沿海"],
    "description": "韩国东海岸庆尚北道蔚珍郡的天文科学馆，背靠太白山脉面朝东海的暗夜天空",
    "matchKeys": ["蔚珍", "Uljin", "울진"]
  },
  {
    "id": 109,
    "name": "塔塔科阿沙漠",
    "nameEn": "Tatacoa Desert",
    "country": "哥伦比亚",
    "region": "南美洲",
    "lat": 3.233,
    "lng": -75.167,
    "type": "观星胜地",
    "bortle": 2,
    "bestSeason": "1-3月,7-9月",
    "altitude": 430,
    "highlights": ["热带沙漠", "赤道星空", "天文台", "红色峡谷"],
    "description": "哥伦比亚近赤道的干旱沙漠，位于赤道附近可同时观测南北天球的独特暗夜",
    "matchKeys": ["塔塔科阿", "Tatacoa", "哥伦比亚暗夜"]
  },
  {
    "id": 110,
    "name": "比库尼亚",
    "nameEn": "Vicuña",
    "country": "智利",
    "region": "南美洲",
    "lat": -30.033,
    "lng": -70.700,
    "type": "观星胜地",
    "bortle": 2,
    "bestSeason": "全年",
    "altitude": 600,
    "highlights": ["艾尔基河谷门户", "民间天文台", "智利皮斯科"],
    "description": "智利艾尔基河谷的门户小镇，多家专业观星旅社和天文台使其成为天文旅游中心",
    "matchKeys": ["比库尼亚", "维库尼亚", "Vicuña", "Vicuna"]
  },
  {
    "id": 111,
    "name": "库斯科高原",
    "nameEn": "Cusco Highlands",
    "country": "秘鲁",
    "region": "南美洲",
    "lat": -13.530,
    "lng": -71.967,
    "type": "观星胜地",
    "bortle": 3,
    "bestSeason": "5-10月",
    "altitude": 3400,
    "highlights": ["印加天文遗产", "马丘比丘附近", "安第斯高原"],
    "description": "秘鲁库斯科古城外围高原，印加人视银河为天河的古老天文传统延续至今",
    "matchKeys": ["库斯科", "Cusco", "Cuzco", "安第斯观星"]
  },
  {
    "id": 112,
    "name": "伊瓜苏暗夜",
    "nameEn": "Foz do Iguaçu Dark Sky",
    "country": "巴西",
    "region": "南美洲",
    "lat": -25.600,
    "lng": -54.350,
    "type": "观星胜地",
    "bortle": 3,
    "bestSeason": "5-9月",
    "altitude": 200,
    "highlights": ["伊瓜苏瀑布", "三国交界", "亚热带暗夜"],
    "description": "巴西伊瓜苏国家公园周边，世界最大瀑布群远离城区方向的南天星空",
    "matchKeys": ["伊瓜苏", "Iguaçu", "Iguazu", "伊瓜苏暗夜"]
  },
  {
    "id": 113,
    "name": "潘帕斯草原保护区",
    "nameEn": "Reserva Pampas",
    "country": "阿根廷",
    "region": "南美洲",
    "lat": -36.500,
    "lng": -63.000,
    "type": "观星胜地",
    "bortle": 2,
    "bestSeason": "3-10月",
    "altitude": 150,
    "highlights": ["阿根廷大草原", "平坦地平线", "南天银河"],
    "description": "阿根廷潘帕斯草原中部腹地，极平坦的地平线上360度无遮挡的南天暗夜",
    "matchKeys": ["潘帕斯", "Pampas", "阿根廷草原暗夜"]
  },
  {
    "id": 114,
    "name": "圣胡安巴雷亚尔天文公园",
    "nameEn": "Barreal Astronomical Park, San Juan",
    "country": "阿根廷",
    "region": "南美洲",
    "lat": -31.640,
    "lng": -69.450,
    "type": "天文台区域",
    "bortle": 1,
    "bestSeason": "全年",
    "altitude": 2000,
    "highlights": ["CASLEO天文台", "安第斯干旱暗夜", "天文旅游"],
    "description": "阿根廷圣胡安省安第斯山麓的天文公园，CASLEO天文台所在的极致暗夜之地",
    "matchKeys": ["圣胡安", "巴雷亚尔", "Barreal", "CASLEO"]
  },
  {
    "id": 115,
    "name": "法雷利奥内斯",
    "nameEn": "Farellones",
    "country": "智利",
    "region": "南美洲",
    "lat": -33.350,
    "lng": -70.300,
    "type": "观星胜地",
    "bortle": 3,
    "bestSeason": "4-10月",
    "altitude": 2340,
    "highlights": ["安第斯滑雪场", "圣地亚哥近郊", "高山暗夜"],
    "description": "智利首都圣地亚哥东部安第斯山高处的滑雪度假区，冬季高山暗夜观星便利",
    "matchKeys": ["法雷利奥内斯", "Farellones", "圣地亚哥观星"]
  },
  {
    "id": 116,
    "name": "图尔卡纳湖",
    "nameEn": "Lake Turkana",
    "country": "肯尼亚",
    "region": "非洲",
    "lat": 3.600,
    "lng": 36.100,
    "type": "观星胜地",
    "bortle": 1,
    "bestSeason": "1-3月,6-9月",
    "altitude": 360,
    "highlights": ["翡翠海", "人类摇篮", "赤道暗夜"],
    "description": "肯尼亚北部大裂谷中的碧玉之海，地球上最偏远的大型湖泊之一的赤道暗夜",
    "matchKeys": ["图尔卡纳", "Turkana", "肯尼亚暗夜"]
  },
  {
    "id": 117,
    "name": "霍加尔山脉",
    "nameEn": "Hoggar Mountains",
    "country": "阿尔及利亚",
    "region": "非洲",
    "lat": 23.300,
    "lng": 5.600,
    "type": "观星胜地",
    "bortle": 1,
    "bestSeason": "9-5月",
    "altitude": 2000,
    "highlights": ["撒哈拉火山群", "图阿雷格文化", "极致干燥暗夜"],
    "description": "阿尔及利亚撒哈拉沙漠中心的古老火山山脉，图阿雷格人领地上的极致暗夜",
    "matchKeys": ["霍加尔", "Hoggar", "Ahaggar", "阿尔及利亚暗夜"]
  },
  {
    "id": 118,
    "name": "阿伊尔山脉",
    "nameEn": "Aïr Mountains",
    "country": "尼日尔",
    "region": "非洲",
    "lat": 18.750,
    "lng": 8.500,
    "type": "观星胜地",
    "bortle": 1,
    "bestSeason": "10-4月",
    "altitude": 800,
    "highlights": ["撒哈拉绿洲山脉", "联合国世界遗产", "极低人口密度"],
    "description": "尼日尔撒哈拉沙漠中的孤立山脉，世界遗产保护区内几乎零人工灯光的暗夜",
    "matchKeys": ["阿伊尔", "Aïr", "Air Mountains", "尼日尔暗夜"]
  },
  {
    "id": 119,
    "name": "鱼河峡谷",
    "nameEn": "Fish River Canyon",
    "country": "纳米比亚",
    "region": "非洲",
    "lat": -27.600,
    "lng": 17.600,
    "type": "观星胜地",
    "bortle": 1,
    "bestSeason": "5-10月",
    "altitude": 500,
    "highlights": ["非洲最大峡谷", "峡谷星空", "纳米比亚南部暗夜"],
    "description": "非洲最大峡谷，纳米比亚南部荒漠中的壮阔峡谷上空银河横贯天际",
    "matchKeys": ["鱼河峡谷", "Fish River Canyon", "纳米比亚峡谷"]
  },
  {
    "id": 120,
    "name": "卡鲁",
    "nameEn": "Karoo",
    "country": "南非",
    "region": "非洲",
    "lat": -32.380,
    "lng": 22.580,
    "type": "观星胜地",
    "bortle": 1,
    "bestSeason": "全年",
    "altitude": 1200,
    "highlights": ["南非半荒漠", "SALT望远镜", "SKA射电阵列"],
    "description": "南非卡鲁半荒漠高原，世界最大射电望远镜SKA选址地的极致暗夜天空",
    "matchKeys": ["卡鲁", "Karoo", "大卡鲁", "SALT", "SKA"]
  },
  {
    "id": 121,
    "name": "塞德堡荒野",
    "nameEn": "Cederberg Wilderness",
    "country": "南非",
    "region": "非洲",
    "lat": -32.400,
    "lng": 19.100,
    "type": "观星胜地",
    "bortle": 2,
    "bestSeason": "3-10月",
    "altitude": 1000,
    "highlights": ["岩石拱门", "南非荒野", "天文摄影胜地"],
    "description": "南非西开普省的塞德堡荒野保护区，奇特的砂岩地貌与南天银河构成摄影佳作",
    "matchKeys": ["塞德堡", "Cederberg", "开普暗夜"]
  },
  {
    "id": 122,
    "name": "巴扎鲁托群岛",
    "nameEn": "Bazaruto Archipelago",
    "country": "莫桑比克",
    "region": "非洲",
    "lat": -21.600,
    "lng": 35.500,
    "type": "观星胜地",
    "bortle": 1,
    "bestSeason": "5-10月",
    "altitude": 5,
    "highlights": ["印度洋离岛", "海洋暗夜", "儒艮栖息地"],
    "description": "莫桑比克海峡中的热带群岛，远离大陆灯光的印度洋上空暗夜纯净至极",
    "matchKeys": ["巴扎鲁托", "Bazaruto", "莫桑比克暗夜"]
  },
  {
    "id": 123,
    "name": "弗林德斯山脉",
    "nameEn": "Flinders Ranges",
    "country": "澳大利亚",
    "region": "大洋洲",
    "lat": -31.330,
    "lng": 138.600,
    "type": "观星胜地",
    "bortle": 2,
    "bestSeason": "3-10月",
    "altitude": 500,
    "highlights": ["威尔佩纳峡谷", "南澳内陆", "原住民天文"],
    "description": "南澳大利亚弗林德斯山脉的古老地貌，威尔佩纳峡谷中仰望澳洲内陆暗夜",
    "matchKeys": ["弗林德斯", "Flinders Ranges", "威尔佩纳"]
  },
  {
    "id": 124,
    "name": "斯图尔特岛",
    "nameEn": "Stewart Island / Rakiura",
    "country": "新西兰",
    "region": "大洋洲",
    "lat": -46.900,
    "lng": 167.850,
    "type": "观星胜地",
    "bortle": 1,
    "bestSeason": "3-9月",
    "altitude": 20,
    "highlights": ["新西兰最南端", "南极光可见", "原始暗夜"],
    "description": "新西兰第三大岛，南纬47度极南位置使其成为观测南极光和南天深空的绝佳地",
    "matchKeys": ["斯图尔特岛", "Stewart Island", "Rakiura", "拉奇乌拉"]
  },
  {
    "id": 125,
    "name": "特卡波镇天文体验区",
    "nameEn": "Lake Tekapo Village Stargazing Zone",
    "country": "新西兰",
    "region": "大洋洲",
    "lat": -44.000,
    "lng": 170.480,
    "type": "暗夜社区",
    "bortle": 2,
    "bestSeason": "4-9月",
    "altitude": 710,
    "highlights": ["暗夜照明管控", "地球与天空导览", "特卡波小镇"],
    "description": "特卡波湖畔小镇实行严格的暗夜照明管控，Earth & Sky公司提供专业导览观星",
    "matchKeys": ["特卡波镇", "Tekapo Village", "Earth and Sky"]
  },
  {
    "id": 126,
    "name": "斯诺登尼亚国家公园",
    "nameEn": "Snowdonia National Park",
    "country": "英国",
    "region": "欧洲",
    "lat": 52.917,
    "lng": -3.850,
    "type": "暗夜保护区",
    "bortle": 3,
    "bestSeason": "9-3月",
    "altitude": 600,
    "highlights": ["威尔士最高峰", "IDA暗夜保护区", "高山湖泊暗夜"],
    "description": "威尔士北部斯诺登峰所在的国际暗夜保护区，山地湖泊上方的英伦暗夜",
    "matchKeys": ["斯诺登尼亚", "Snowdonia", "斯诺登", "Eryri"]
  },
  {
    "id": 127,
    "name": "霍尔托巴吉国家公园",
    "nameEn": "Hortobágy National Park",
    "country": "匈牙利",
    "region": "欧洲",
    "lat": 47.583,
    "lng": 21.150,
    "type": "国际暗夜公园",
    "bortle": 3,
    "bestSeason": "5-10月",
    "altitude": 90,
    "highlights": ["匈牙利大平原", "IDA暗夜公园", "草原暗夜"],
    "description": "匈牙利大平原上的世界遗产国家公园，欧洲最大连片自然草原上的开阔暗夜",
    "matchKeys": ["霍尔托巴吉", "Hortobágy", "Hortobagy", "匈牙利暗夜"]
  },
  {
    "id": 128,
    "name": "阿连特茹暗夜星空",
    "nameEn": "Alentejo Dark Skies",
    "country": "葡萄牙",
    "region": "欧洲",
    "lat": 38.700,
    "lng": -7.900,
    "type": "观星胜地",
    "bortle": 2,
    "bestSeason": "5-10月",
    "altitude": 250,
    "highlights": ["葡萄牙腹地", "橡树草原", "地中海气候"],
    "description": "葡萄牙阿连特茹内陆腹地广袤的橡树草原，欧洲人口最稀少地区之一的暗夜",
    "matchKeys": ["阿连特茹", "Alentejo", "葡萄牙内陆暗夜"]
  },
  {
    "id": 129,
    "name": "伊萨尼亚天文台",
    "nameEn": "Izaña Observatory",
    "country": "西班牙",
    "region": "欧洲",
    "lat": 28.309,
    "lng": -16.499,
    "type": "天文台区域",
    "bortle": 1,
    "bestSeason": "5-10月",
    "altitude": 2390,
    "highlights": ["特内里费高山", "大气研究站", "泰德峰暗夜"],
    "description": "特内里费岛泰德火山高处的大气和天文观测站，云海之上的极致暗夜观星",
    "matchKeys": ["伊萨尼亚", "Izaña", "Izana", "特内里费天文台"]
  },
  {
    "id": 130,
    "name": "少女峰",
    "nameEn": "Jungfraujoch",
    "country": "瑞士",
    "region": "欧洲",
    "lat": 46.547,
    "lng": 7.985,
    "type": "天文台区域",
    "bortle": 2,
    "bestSeason": "全年",
    "altitude": 3571,
    "highlights": ["欧洲之巅", "斯芬克斯天文台", "阿尔卑斯暗夜"],
    "description": "瑞士阿尔卑斯少女峰上的斯芬克斯天文台，海拔3571米的欧洲最高天文观测站",
    "matchKeys": ["少女峰", "Jungfraujoch", "斯芬克斯天文台"]
  },
  {
    "id": 131,
    "name": "上普罗旺斯天文台",
    "nameEn": "Observatoire de Haute-Provence",
    "country": "法国",
    "region": "欧洲",
    "lat": 43.932,
    "lng": 5.713,
    "type": "天文台区域",
    "bortle": 3,
    "bestSeason": "5-10月",
    "altitude": 650,
    "highlights": ["首颗系外行星发现地", "普罗旺斯暗夜", "1.93米望远镜"],
    "description": "法国上普罗旺斯天文台，1995年在此发现首颗太阳系外行星51 Pegasi b的历史圣地",
    "matchKeys": ["上普罗旺斯", "Haute-Provence", "OHP", "51 Pegasi"]
  },
  {
    "id": 132,
    "name": "内姆鲁特山",
    "nameEn": "Mount Nemrut",
    "country": "土耳其",
    "region": "亚洲",
    "lat": 37.981,
    "lng": 38.741,
    "type": "观星胜地",
    "bortle": 2,
    "bestSeason": "5-10月",
    "altitude": 2134,
    "highlights": ["巨石人像", "世界遗产", "安纳托利亚暗夜"],
    "description": "土耳其东南部内姆鲁特山世界遗产巨石人像，古代神像上方的安纳托利亚暗夜",
    "matchKeys": ["内姆鲁特", "Nemrut", "尼姆鲁特"]
  },
  {
    "id": 133,
    "name": "鲁卜哈利沙漠",
    "nameEn": "Rub' al Khali (Empty Quarter)",
    "country": "沙特阿拉伯",
    "region": "亚洲",
    "lat": 20.000,
    "lng": 50.000,
    "type": "观星胜地",
    "bortle": 1,
    "bestSeason": "10-4月",
    "altitude": 300,
    "highlights": ["空旷之地", "世界最大沙漠", "贝都因星空"],
    "description": "阿拉伯半岛鲁卜哈利沙漠，世界最大连续沙漠中几乎完全无人工灯光的极致暗夜",
    "matchKeys": ["鲁卜哈利", "Rub al Khali", "Empty Quarter", "空旷之地"]
  },
  {
    "id": 134,
    "name": "达什特卡维尔盐漠",
    "nameEn": "Dasht-e Kavir",
    "country": "伊朗",
    "region": "亚洲",
    "lat": 34.500,
    "lng": 54.000,
    "type": "观星胜地",
    "bortle": 1,
    "bestSeason": "4-10月",
    "altitude": 800,
    "highlights": ["伊朗中央荒漠", "盐沼星空", "丝路暗夜"],
    "description": "伊朗中部达什特卡维尔大盐漠，古丝绸之路沿线的广袤荒漠暗夜纯净",
    "matchKeys": ["达什特卡维尔", "Dasht-e Kavir", "伊朗沙漠暗夜"]
  },
  {
    "id": 135,
    "name": "塔尔沙漠",
    "nameEn": "Thar Desert",
    "country": "印度",
    "region": "亚洲",
    "lat": 27.000,
    "lng": 71.000,
    "type": "观星胜地",
    "bortle": 2,
    "bestSeason": "10-3月",
    "altitude": 200,
    "highlights": ["拉贾斯坦沙漠", "骆驼露营", "杰伊瑟尔梅尔"],
    "description": "印度拉贾斯坦邦塔尔沙漠，杰伊瑟尔梅尔金色城堡外的沙丘营地观星体验",
    "matchKeys": ["塔尔沙漠", "Thar", "杰伊瑟尔梅尔", "拉贾斯坦暗夜"]
  },
  {
    "id": 136,
    "name": "班公错",
    "nameEn": "Pangong Lake",
    "country": "中国/印度",
    "region": "亚洲",
    "lat": 33.750,
    "lng": 78.650,
    "type": "观星胜地",
    "bortle": 1,
    "bestSeason": "6-9月",
    "altitude": 4250,
    "highlights": ["跨境高原湖泊", "极高海拔暗夜", "变色湖"],
    "description": "中印边境海拔4250米的高原湖泊，极致海拔与极低人口密度带来顶级暗夜条件",
    "matchKeys": ["班公错", "Pangong", "班公湖"]
  },
  {
    "id": 137,
    "name": "罕萨山谷",
    "nameEn": "Hunza Valley",
    "country": "巴基斯坦",
    "region": "亚洲",
    "lat": 36.316,
    "lng": 74.650,
    "type": "观星胜地",
    "bortle": 2,
    "bestSeason": "6-10月",
    "altitude": 2500,
    "highlights": ["喀喇昆仑公路", "拉卡波希峰", "巴基斯坦北部暗夜"],
    "description": "巴基斯坦北部喀喇昆仑山脉中的罕萨山谷，雪峰环绕的高山暗夜星空",
    "matchKeys": ["罕萨", "Hunza", "喀喇昆仑暗夜"]
  },
  {
    "id": 138,
    "name": "卡帕多西亚",
    "nameEn": "Cappadocia",
    "country": "土耳其",
    "region": "亚洲",
    "lat": 38.643,
    "lng": 34.830,
    "type": "观星胜地",
    "bortle": 3,
    "bestSeason": "5-10月",
    "altitude": 1100,
    "highlights": ["仙人烟囱", "热气球", "洞穴酒店星空"],
    "description": "土耳其卡帕多西亚奇特的仙人烟囱地貌上方，清晨热气球与夜间银河同样壮观",
    "matchKeys": ["卡帕多西亚", "Cappadocia", "格雷梅"]
  },
  {
    "id": 139,
    "name": "西奈沙漠",
    "nameEn": "Sinai Desert",
    "country": "埃及",
    "region": "非洲",
    "lat": 28.800,
    "lng": 33.900,
    "type": "观星胜地",
    "bortle": 2,
    "bestSeason": "9-5月",
    "altitude": 1500,
    "highlights": ["西奈山", "圣凯瑟琳修道院", "沙漠暗夜"],
    "description": "埃及西奈半岛沙漠腹地，圣凯瑟琳修道院附近的古老沙漠暗夜",
    "matchKeys": ["西奈", "Sinai", "西奈山", "圣凯瑟琳"]
  },
  {
    "id": 140,
    "name": "斯瓦尔巴群岛",
    "nameEn": "Svalbard",
    "country": "挪威",
    "region": "欧洲",
    "lat": 78.230,
    "lng": 15.630,
    "type": "观星胜地",
    "bortle": 1,
    "bestSeason": "11-2月",
    "altitude": 30,
    "highlights": ["北极极夜", "极光风暴", "北极熊"],
    "description": "北纬78度的挪威斯瓦尔巴群岛，冬季长达四个月的极夜带来极光和星空奇观",
    "matchKeys": ["斯瓦尔巴", "Svalbard", "朗伊尔城", "北极暗夜"]
  },
  {
    "id": 141,
    "name": "南极半岛",
    "nameEn": "Antarctic Peninsula",
    "country": "南极洲",
    "region": "南极洲",
    "lat": -65.000,
    "lng": -60.000,
    "type": "观星胜地",
    "bortle": 1,
    "bestSeason": "4-8月",
    "altitude": 100,
    "highlights": ["地球最纯净暗夜", "南极光", "极夜星空"],
    "description": "南极半岛是地球上光污染最低的区域，极夜期间可见最壮观的南极光和南天星空",
    "matchKeys": ["南极", "Antarctic", "Antarctica", "南极暗夜"]
  },
  {
    "id": 142,
    "name": "冰岛高地",
    "nameEn": "Iceland Highlands",
    "country": "冰岛",
    "region": "欧洲",
    "lat": 64.800,
    "lng": -18.500,
    "type": "观星胜地",
    "bortle": 1,
    "bestSeason": "9-3月",
    "altitude": 600,
    "highlights": ["冰岛内陆高地", "极光走廊", "火山暗夜"],
    "description": "冰岛无人居住的内陆高地，火山荒原上空的极光和暗夜是北大西洋最壮美的天空",
    "matchKeys": ["冰岛高地", "Iceland Highlands", "冰岛极光", "兰德曼纳劳卡"]
  },
  {
    "id": 143,
    "name": "约书亚树国家公园",
    "nameEn": "Joshua Tree National Park",
    "country": "美国",
    "region": "北美洲",
    "lat": 33.881,
    "lng": -115.900,
    "type": "国际暗夜公园",
    "bortle": 3,
    "bestSeason": "10-4月",
    "altitude": 800,
    "highlights": ["约书亚树", "莫哈维沙漠", "岩石星空"],
    "description": "加利福尼亚莫哈维沙漠中标志性约书亚树与巨石群上方的暗夜星空",
    "matchKeys": ["约书亚树", "Joshua Tree", "莫哈维暗夜"]
  },
  {
    "id": 144,
    "name": "克雷顿暗夜社区",
    "nameEn": "Craighton Dark Sky Community",
    "country": "牙买加",
    "region": "北美洲",
    "lat": 18.250,
    "lng": -77.550,
    "type": "暗夜社区",
    "bortle": 3,
    "bestSeason": "12-4月",
    "altitude": 600,
    "highlights": ["加勒比暗夜社区", "蓝山山脉", "热带暗夜"],
    "description": "牙买加蓝山山脉中的暗夜社区，加勒比海地区罕见的低光污染热带暗夜",
    "matchKeys": ["克雷顿", "Craighton", "牙买加暗夜"]
  },
  {
    "id": 145,
    "name": "巴尔多萨山暗夜保护区",
    "nameEn": "Sierra Morena Starlight Reserve",
    "country": "西班牙",
    "region": "欧洲",
    "lat": 38.400,
    "lng": -4.200,
    "type": "暗夜保护区",
    "bortle": 2,
    "bestSeason": "5-10月",
    "altitude": 600,
    "highlights": ["安达卢西亚暗夜", "星光保护区", "伊比利亚猞猁"],
    "description": "西班牙安达卢西亚内华达山脉北侧的星光保护区，伊比利亚半岛最暗区域之一",
    "matchKeys": ["莫雷纳山", "Sierra Morena", "安达卢西亚暗夜"]
  },
  {
    "id": 146,
    "name": "阿图罗普拉特天文台",
    "nameEn": "Observatorio Cerro Mamalluca",
    "country": "智利",
    "region": "南美洲",
    "lat": -30.200,
    "lng": -70.690,
    "type": "天文台区域",
    "bortle": 2,
    "bestSeason": "全年",
    "altitude": 1100,
    "highlights": ["公众天文台", "艾尔基谷", "智利天文旅游"],
    "description": "智利艾尔基河谷对公众开放的天文台，南半球最受欢迎的业余观星设施之一",
    "matchKeys": ["马马�的卡", "Mamalluca", "智利公众天文台"]
  },
  {
    "id": 147,
    "name": "卡尔达河国家公园",
    "nameEn": "Calanques National Park",
    "country": "法国",
    "region": "欧洲",
    "lat": 43.200,
    "lng": 5.450,
    "type": "观星胜地",
    "bortle": 3,
    "bestSeason": "5-10月",
    "altitude": 200,
    "highlights": ["地中海海岸暗夜", "石灰岩峡湾", "马赛近郊"],
    "description": "法国马赛南部地中海海岸的国家公园，石灰岩峡湾面朝大海方向的暗夜天空",
    "matchKeys": ["卡朗格", "Calanques", "地中海暗夜"]
  },
  {
    "id": 148,
    "name": "萨克岛",
    "nameEn": "Sark Island",
    "country": "英国",
    "region": "欧洲",
    "lat": 49.433,
    "lng": -2.358,
    "type": "暗夜社区",
    "bortle": 3,
    "bestSeason": "全年",
    "altitude": 80,
    "highlights": ["世界首个暗夜岛", "无机动车辆", "海峡群岛"],
    "description": "英吉利海峡中的萨克岛，2011年成为世界首个暗夜岛屿，全岛禁止机动车和路灯",
    "matchKeys": ["萨克岛", "Sark", "萨克暗夜"]
  },
  {
    "id": 149,
    "name": "毛纳罗亚天文台",
    "nameEn": "Mauna Loa Observatory",
    "country": "美国",
    "region": "北美洲",
    "lat": 19.536,
    "lng": -155.576,
    "type": "天文台区域",
    "bortle": 1,
    "bestSeason": "全年",
    "altitude": 3397,
    "highlights": ["二氧化碳监测", "夏威夷暗夜", "大气基线站"],
    "description": "夏威夷毛纳罗亚火山上的大气基线观测站，高海拔清洁大气带来极佳暗夜",
    "matchKeys": ["毛纳罗亚", "Mauna Loa", "夏威夷观测站"]
  },
  {
    "id": 150,
    "name": "伍德布法罗国家公园",
    "nameEn": "Wood Buffalo National Park",
    "country": "加拿大",
    "region": "北美洲",
    "lat": 59.400,
    "lng": -112.900,
    "type": "暗夜保护区",
    "bortle": 1,
    "bestSeason": "8-4月",
    "altitude": 250,
    "highlights": ["加拿大最大国家公园", "IDA暗夜保护区", "北方极光"],
    "description": "加拿大面积最大的国家公园，世界面积最大的暗夜保护区之一，极光与暗夜兼得",
    "matchKeys": ["伍德布法罗", "Wood Buffalo", "加拿大最大暗夜"]
  },
  {
    "id": 151,
    "name": "黑峡谷国家公园",
    "nameEn": "Black Canyon of the Gunnison",
    "country": "美国",
    "region": "北美洲",
    "lat": 38.575,
    "lng": -107.724,
    "type": "国际暗夜公园",
    "bortle": 2,
    "bestSeason": "5-10月",
    "altitude": 2300,
    "highlights": ["科罗拉多暗夜", "深邃峡谷", "IDA金级认证"],
    "description": "科罗拉多州甘尼森河切割出的深邃黑峡谷，IDA金级认证的暗夜公园",
    "matchKeys": ["黑峡谷", "Black Canyon", "甘尼森暗夜"]
  },
  {
    "id": 152,
    "name": "皮卡尔迪暗夜三角",
    "nameEn": "Pic de Finestrelles Dark Triangle",
    "country": "西班牙",
    "region": "欧洲",
    "lat": 42.300,
    "lng": 2.050,
    "type": "观星胜地",
    "bortle": 2,
    "bestSeason": "6-9月",
    "altitude": 1800,
    "highlights": ["加泰罗尼亚暗夜", "比利牛斯东段", "欧洲暗夜三角"],
    "description": "西班牙加泰罗尼亚比利牛斯山脉东段的暗夜三角区域，欧洲大陆最黑暗的区域之一",
    "matchKeys": ["费内斯特雷列斯", "Finestrelles", "加泰罗尼亚暗夜"]
  },
  {
    "id": 153,
    "name": "中部卡拉哈里禁猎区",
    "nameEn": "Central Kalahari Game Reserve",
    "country": "博茨瓦纳",
    "region": "非洲",
    "lat": -21.700,
    "lng": 24.500,
    "type": "观星胜地",
    "bortle": 1,
    "bestSeason": "4-10月",
    "altitude": 1000,
    "highlights": ["非洲第二大保护区", "布须曼人", "荒野暗夜"],
    "description": "博茨瓦纳中部卡拉哈里禁猎区，面积5.2万平方公里的荒野中几乎零人工灯光",
    "matchKeys": ["中部卡拉哈里", "Central Kalahari", "CKGR"]
  }
]