[
  {
    "id": 1,
    "name": "蓝湖温泉",
    "nameEn": "Blue Lagoon",
    "country": "冰岛",
    "region": "欧洲",
    "lat": 63.8804,
    "lng": -22.4495,
    "type": "地热温泉",
    "temperature": 39,
    "altitude": 0,
    "bestSeason": "全年",
    "highlights": ["硅泥面膜", "极光观赏", "地热景观"],
    "description": "冰岛最著名的地热温泉，蓝色乳白色泉水富含矿物质，位于雷克雅内斯半岛熔岩原上，水温常年保持在37-40°C。",
    "matchKeys": ["蓝湖", "Blue Lagoon", "蓝湖温泉"]
  },
  {
    "id": 2,
    "name": "米湖温泉",
    "nameEn": "Myvatn Nature Baths",
    "country": "冰岛",
    "region": "欧洲",
    "lat": 65.6310,
    "lng": -16.8488,
    "type": "地热温泉",
    "temperature": 38,
    "altitude": 278,
    "bestSeason": "全年",
    "highlights": ["火山地貌", "北极光", "人少清幽"],
    "description": "冰岛北部的地热温泉，被称为北方蓝湖，水质富含矿物质，周围环绕壮观的火山地貌。",
    "matchKeys": ["米湖", "Myvatn", "米湖温泉"]
  },
  {
    "id": 3,
    "name": "秘密温泉",
    "nameEn": "Secret Lagoon",
    "country": "冰岛",
    "region": "欧洲",
    "lat": 64.1367,
    "lng": -20.3090,
    "type": "野温泉",
    "temperature": 40,
    "altitude": 105,
    "bestSeason": "全年",
    "highlights": ["最古老泳池", "自然野趣", "蒸汽缭绕"],
    "description": "冰岛最古老的天然温泉泳池，建于1891年，保留了原始自然的沐浴体验。",
    "matchKeys": ["秘密温泉", "Secret Lagoon"]
  },
  {
    "id": 4,
    "name": "盖歇尔间歇泉",
    "nameEn": "Geysir",
    "country": "冰岛",
    "region": "欧洲",
    "lat": 64.3104,
    "lng": -20.3024,
    "type": "间歇泉",
    "temperature": 80,
    "altitude": 110,
    "bestSeason": "夏季",
    "highlights": ["间歇泉喷发", "黄金圈", "地热奇观"],
    "description": "世界上所有间歇泉的命名起源地，Strokkur间歇泉每隔6-10分钟喷发一次，水柱高达30米。",
    "matchKeys": ["盖歇尔", "Geysir", "间歇泉"]
  },
  {
    "id": 5,
    "name": "兰德曼纳劳卡",
    "nameEn": "Landmannalaugar",
    "country": "冰岛",
    "region": "欧洲",
    "lat": 63.9930,
    "lng": -19.0617,
    "type": "野温泉",
    "temperature": 36,
    "altitude": 600,
    "bestSeason": "夏季",
    "highlights": ["彩色流纹岩山", "徒步天堂", "野外温泉"],
    "description": "冰岛高地最美丽的野温泉，四周环绕五彩斑斓的流纹岩山脉，是著名徒步路线的起点。",
    "matchKeys": ["兰德曼纳劳卡", "Landmannalaugar"]
  },
  {
    "id": 6,
    "name": "雷克达鲁尔温泉河",
    "nameEn": "Reykjadalur Hot Spring River",
    "country": "冰岛",
    "region": "欧洲",
    "lat": 64.0333,
    "lng": -21.2167,
    "type": "野温泉",
    "temperature": 35,
    "altitude": 200,
    "bestSeason": "夏季",
    "highlights": ["温泉河流", "徒步浸泡", "蒸汽山谷"],
    "description": "一条天然温泉河流，需要徒步约45分钟抵达，在蒸汽缭绕的山谷中享受温暖河水。",
    "matchKeys": ["雷克达鲁尔", "Reykjadalur"]
  },
  {
    "id": 7,
    "name": "天空之湖",
    "nameEn": "Sky Lagoon",
    "country": "冰岛",
    "region": "欧洲",
    "lat": 64.1010,
    "lng": -22.0167,
    "type": "地热温泉",
    "temperature": 38,
    "altitude": 5,
    "bestSeason": "全年",
    "highlights": ["海景无边泳池", "冷雾体验", "北欧设计"],
    "description": "雷克雅未克郊外的现代地热温泉，无边际泳池面朝北大西洋，融合传统冰岛沐浴文化与现代设计。",
    "matchKeys": ["天空之湖", "Sky Lagoon"]
  },
  {
    "id": 8,
    "name": "塞里雅兰温泉",
    "nameEn": "Seljavallalaug",
    "country": "冰岛",
    "region": "欧洲",
    "lat": 63.5650,
    "lng": -19.6083,
    "type": "野温泉",
    "temperature": 30,
    "altitude": 120,
    "bestSeason": "夏季",
    "highlights": ["百年野泳池", "冰川背景", "免费开放"],
    "description": "冰岛最古老的露天泳池之一，建于1923年，背靠艾雅法拉冰川，需徒步15分钟到达。",
    "matchKeys": ["塞里雅兰", "Seljavallalaug"]
  },
  {
    "id": 9,
    "name": "箱根温泉",
    "nameEn": "Hakone Onsen",
    "country": "日本",
    "region": "亚洲",
    "lat": 35.2326,
    "lng": 139.1070,
    "type": "温泉小镇",
    "temperature": 42,
    "altitude": 750,
    "bestSeason": "秋季",
    "highlights": ["富士山景", "温泉旅馆", "大涌谷"],
    "description": "东京近郊最受欢迎的温泉度假地，拥有17种不同泉质，可远眺富士山美景。",
    "matchKeys": ["箱根", "Hakone", "箱根温泉"]
  },
  {
    "id": 10,
    "name": "别府温泉",
    "nameEn": "Beppu Onsen",
    "country": "日本",
    "region": "亚洲",
    "lat": 33.2846,
    "lng": 131.4913,
    "type": "地热温泉",
    "temperature": 50,
    "altitude": 10,
    "bestSeason": "冬季",
    "highlights": ["地狱巡游", "砂汤体验", "温泉蒸汽"],
    "description": "日本涌出量第一的温泉城市，拥有八大地狱温泉奇观，城市处处冒着蒸汽。",
    "matchKeys": ["别府", "Beppu", "别府温泉"]
  },
  {
    "id": 11,
    "name": "草津温泉",
    "nameEn": "Kusatsu Onsen",
    "country": "日本",
    "region": "亚洲",
    "lat": 36.6215,
    "lng": 138.5960,
    "type": "温泉小镇",
    "temperature": 51,
    "altitude": 1200,
    "bestSeason": "冬季",
    "highlights": ["汤畑", "汤揉表演", "强酸性泉"],
    "description": "日本三大名泉之首，以汤畑为中心的温泉小镇，强酸性硫黄泉具有极佳的杀菌效果。",
    "matchKeys": ["草津", "Kusatsu", "草津温泉"]
  },
  {
    "id": 12,
    "name": "有马温泉",
    "nameEn": "Arima Onsen",
    "country": "日本",
    "region": "亚洲",
    "lat": 34.7975,
    "lng": 135.2472,
    "type": "温泉小镇",
    "temperature": 42,
    "altitude": 350,
    "bestSeason": "秋季",
    "highlights": ["金汤银汤", "千年历史", "六甲山"],
    "description": "日本三大古汤之一，拥有金汤（含铁红泉）和银汤（碳酸泉）两种名泉，历史超过千年。",
    "matchKeys": ["有马", "Arima", "有马温泉"]
  },
  {
    "id": 13,
    "name": "道后温泉",
    "nameEn": "Dogo Onsen",
    "country": "日本",
    "region": "亚洲",
    "lat": 33.8521,
    "lng": 132.7874,
    "type": "温泉小镇",
    "temperature": 46,
    "altitude": 30,
    "bestSeason": "春季",
    "highlights": ["千与千寻原型", "百年本馆", "少爷机关钟"],
    "description": "日本最古老的温泉之一，道后温泉本馆据说是宫崎骏《千与千寻》汤屋的灵感来源。",
    "matchKeys": ["道后", "Dogo", "道后温泉"]
  },
  {
    "id": 14,
    "name": "登别温泉",
    "nameEn": "Noboribetsu Onsen",
    "country": "日本",
    "region": "亚洲",
    "lat": 42.4933,
    "lng": 141.1447,
    "type": "火山温泉",
    "temperature": 45,
    "altitude": 200,
    "bestSeason": "冬季",
    "highlights": ["地狱谷", "九种泉质", "熊牧场"],
    "description": "北海道代表性温泉，以地狱谷火山口遗迹闻名，拥有九种不同泉质，被称为温泉百货公司。",
    "matchKeys": ["登别", "Noboribetsu", "登别温泉"]
  },
  {
    "id": 15,
    "name": "指宿砂蒸温泉",
    "nameEn": "Ibusuki Sand Bath",
    "country": "日本",
    "region": "亚洲",
    "lat": 31.2283,
    "lng": 130.6417,
    "type": "海滨温泉",
    "temperature": 55,
    "altitude": 0,
    "bestSeason": "春秋",
    "highlights": ["砂蒸风吕", "海滨沙滩", "排毒养生"],
    "description": "世界唯一的天然砂蒸温泉，躺在海边被温热的砂子覆盖全身，体验独特的砂浴疗法。",
    "matchKeys": ["指宿", "Ibusuki", "砂蒸温泉"]
  },
  {
    "id": 16,
    "name": "城崎温泉",
    "nameEn": "Kinosaki Onsen",
    "country": "日本",
    "region": "亚洲",
    "lat": 35.6267,
    "lng": 134.8117,
    "type": "温泉小镇",
    "temperature": 42,
    "altitude": 10,
    "bestSeason": "冬季",
    "highlights": ["七大外汤", "浴衣漫步", "松叶蟹"],
    "description": "拥有1300年历史的温泉小镇，穿浴衣木屐漫步柳树溪畔，巡游七大外汤是经典体验。",
    "matchKeys": ["城崎", "Kinosaki", "城崎温泉"]
  },
  {
    "id": 17,
    "name": "下吕温泉",
    "nameEn": "Gero Onsen",
    "country": "日本",
    "region": "亚洲",
    "lat": 35.8044,
    "lng": 137.2442,
    "type": "温泉小镇",
    "temperature": 55,
    "altitude": 373,
    "bestSeason": "冬季",
    "highlights": ["日本三名泉", "美肌之汤", "飞騨牛"],
    "description": "日本三大名泉之一，碱性单纯泉被誉为美肌之汤，泉水滑润如丝，自古以来深受文人墨客喜爱。",
    "matchKeys": ["下吕", "Gero", "下吕温泉"]
  },
  {
    "id": 18,
    "name": "黑川温泉",
    "nameEn": "Kurokawa Onsen",
    "country": "日本",
    "region": "亚洲",
    "lat": 33.1417,
    "lng": 131.1333,
    "type": "温泉小镇",
    "temperature": 43,
    "altitude": 700,
    "bestSeason": "冬季",
    "highlights": ["入汤手形", "露天风吕", "竹灯笼"],
    "description": "隐秘在九州山间的温泉乡，以入汤手形巡游各旅馆露天风吕著称，冬季竹灯笼夜景绝美。",
    "matchKeys": ["黑川", "Kurokawa", "黑川温泉"]
  },
  {
    "id": 19,
    "name": "银山温泉",
    "nameEn": "Ginzan Onsen",
    "country": "日本",
    "region": "亚洲",
    "lat": 38.5683,
    "lng": 140.5367,
    "type": "温泉小镇",
    "temperature": 60,
    "altitude": 250,
    "bestSeason": "冬季",
    "highlights": ["大正浪漫", "雪景温泉", "煤气灯"],
    "description": "保留大正时代风貌的温泉街，冬夜飘雪时煤气灯映照木造旅馆的画面如梦似幻。",
    "matchKeys": ["银山", "Ginzan", "银山温泉"]
  },
  {
    "id": 20,
    "name": "乳头温泉",
    "nameEn": "Nyuto Onsen",
    "country": "日本",
    "region": "亚洲",
    "lat": 39.7833,
    "lng": 140.7500,
    "type": "野温泉",
    "temperature": 48,
    "altitude": 800,
    "bestSeason": "冬季",
    "highlights": ["秘汤之宿", "乳白色泉水", "原始森林"],
    "description": "秋田县深山中的秘汤群，以鶴の湯温泉的乳白色露天风吕最为著名，四周被原始山毛榉林环绕。",
    "matchKeys": ["乳头", "Nyuto", "乳头温泉"]
  },
  {
    "id": 21,
    "name": "玉造温泉",
    "nameEn": "Tamatsukuri Onsen",
    "country": "日本",
    "region": "亚洲",
    "lat": 35.4117,
    "lng": 132.9933,
    "type": "温泉小镇",
    "temperature": 42,
    "altitude": 20,
    "bestSeason": "春秋",
    "highlights": ["美肌温泉", "勾玉文化", "温泉街"],
    "description": "出云地区历史悠久的美肌温泉，与勾玉文化紧密相连，温泉水可带走作为化妆水使用。",
    "matchKeys": ["玉造", "Tamatsukuri", "玉造温泉"]
  },
  {
    "id": 22,
    "name": "奥飛騨温泉",
    "nameEn": "Okuhida Onsengo",
    "country": "日本",
    "region": "亚洲",
    "lat": 36.2833,
    "lng": 137.5833,
    "type": "野温泉",
    "temperature": 45,
    "altitude": 1100,
    "bestSeason": "秋冬",
    "highlights": ["北阿尔卑斯", "露天风吕数量日本第一", "雪见温泉"],
    "description": "飞騨山脉脚下的温泉乡群，拥有日本最多的露天风吕，可边泡温泉边欣赏北阿尔卑斯山脉。",
    "matchKeys": ["奥飞騨", "Okuhida", "奥飞騨温泉"]
  },
  {
    "id": 23,
    "name": "白骨温泉",
    "nameEn": "Shirahone Onsen",
    "country": "日本",
    "region": "亚洲",
    "lat": 36.1667,
    "lng": 137.6167,
    "type": "野温泉",
    "temperature": 48,
    "altitude": 1400,
    "bestSeason": "秋冬",
    "highlights": ["乳白色泉水", "深山秘境", "三日入浴不感冒"],
    "description": "中部山岳深处的秘汤，泉水接触空气后变为乳白色，自古有'泡三天白骨不会感冒'的说法。",
    "matchKeys": ["白骨", "Shirahone", "白骨温泉"]
  },
  {
    "id": 24,
    "name": "腾冲热海",
    "nameEn": "Tengchong Hot Sea",
    "country": "中国",
    "region": "亚洲",
    "lat": 24.9500,
    "lng": 98.4833,
    "type": "地热奇观",
    "temperature": 96,
    "altitude": 1500,
    "bestSeason": "冬春",
    "highlights": ["大滚锅", "蒸汽喷泉", "温泉煮鸡蛋"],
    "description": "中国三大地热区之一，大滚锅泉水温度可达96°C，蒸汽冲天，可用地热蒸煮食物。",
    "matchKeys": ["腾冲", "Tengchong", "热海", "腾冲热海"]
  },
  {
    "id": 25,
    "name": "黄龙温泉",
    "nameEn": "Huanglong Hot Spring",
    "country": "中国",
    "region": "亚洲",
    "lat": 32.7500,
    "lng": 103.8167,
    "type": "地热温泉",
    "temperature": 36,
    "altitude": 3560,
    "bestSeason": "夏秋",
    "highlights": ["钙华彩池", "高原温泉", "世界遗产"],
    "description": "九寨沟-黄龙景区内的高原温泉，周围环绕着举世闻名的钙华彩池地貌。",
    "matchKeys": ["黄龙温泉", "Huanglong", "九寨沟温泉"]
  },
  {
    "id": 26,
    "name": "羊八井地热温泉",
    "nameEn": "Yangbajain Hot Spring",
    "country": "中国",
    "region": "亚洲",
    "lat": 30.0833,
    "lng": 90.5167,
    "type": "地热温泉",
    "temperature": 47,
    "altitude": 4300,
    "bestSeason": "夏秋",
    "highlights": ["世界海拔最高温泉之一", "雪山环绕", "地热发电"],
    "description": "西藏最著名的地热温泉，海拔4300米，泡在温泉中可远眺念青唐古拉山脉雪峰。",
    "matchKeys": ["羊八井", "Yangbajain", "羊八井温泉"]
  },
  {
    "id": 27,
    "name": "大理地热国",
    "nameEn": "Dali Geothermal Resort",
    "country": "中国",
    "region": "亚洲",
    "lat": 25.5889,
    "lng": 100.2250,
    "type": "地热温泉",
    "temperature": 42,
    "altitude": 1980,
    "bestSeason": "冬春",
    "highlights": ["洱海风光", "白族文化", "花园温泉"],
    "description": "大理洱海畔的温泉度假地，融合白族建筑风格，可一边泡温泉一边欣赏苍山洱海。",
    "matchKeys": ["大理温泉", "Dali", "大理地热国"]
  },
  {
    "id": 28,
    "name": "海螺沟温泉",
    "nameEn": "Hailuogou Hot Spring",
    "country": "中国",
    "region": "亚洲",
    "lat": 29.5833,
    "lng": 101.9833,
    "type": "野温泉",
    "temperature": 45,
    "altitude": 2850,
    "bestSeason": "冬季",
    "highlights": ["冰川温泉", "贡嘎山景", "原始森林"],
    "description": "贡嘎山东坡冰川脚下的野温泉，冬季一边泡温泉一边赏冰川雪景，体验冰火两重天。",
    "matchKeys": ["海螺沟", "Hailuogou", "海螺沟温泉"]
  },
  {
    "id": 29,
    "name": "长白山温泉",
    "nameEn": "Changbaishan Hot Spring",
    "country": "中国",
    "region": "亚洲",
    "lat": 42.0167,
    "lng": 128.0667,
    "type": "火山温泉",
    "temperature": 60,
    "altitude": 2100,
    "bestSeason": "冬季",
    "highlights": ["天池火山", "聚龙泉群", "温泉煮蛋"],
    "description": "长白山火山群带来的温泉资源，聚龙泉水温高达82°C，冬季雪地中热气蒸腾景象壮观。",
    "matchKeys": ["长白山", "Changbaishan", "长白山温泉"]
  },
  {
    "id": 30,
    "name": "珠峰大本营温泉",
    "nameEn": "Everest Base Camp Hot Spring",
    "country": "中国",
    "region": "亚洲",
    "lat": 28.1433,
    "lng": 86.8528,
    "type": "野温泉",
    "temperature": 35,
    "altitude": 5100,
    "bestSeason": "夏秋",
    "highlights": ["世界最高温泉", "珠峰近景", "极限体验"],
    "description": "位于珠穆朗玛峰北坡大本营附近的野温泉，可能是世界海拔最高的天然温泉之一。",
    "matchKeys": ["珠峰温泉", "Everest Hot Spring", "珠峰大本营温泉"]
  },
  {
    "id": 31,
    "name": "阿尔山温泉",
    "nameEn": "Arxan Hot Spring",
    "country": "中国",
    "region": "亚洲",
    "lat": 47.1833,
    "lng": 119.9500,
    "type": "地热温泉",
    "temperature": 42,
    "altitude": 1000,
    "bestSeason": "冬季",
    "highlights": ["中国温泉博物馆", "火山地貌", "林海雪原"],
    "description": "内蒙古大兴安岭深处的温泉小城，拥有48眼不同温度和功效的温泉，被誉为中国温泉博物馆。",
    "matchKeys": ["阿尔山", "Arxan", "阿尔山温泉"]
  },
  {
    "id": 32,
    "name": "螺髻山温泉",
    "nameEn": "Luoji Mountain Hot Spring",
    "country": "中国",
    "region": "亚洲",
    "lat": 27.5500,
    "lng": 102.4333,
    "type": "野温泉",
    "temperature": 40,
    "altitude": 1800,
    "bestSeason": "全年",
    "highlights": ["世界最大温泉瀑布", "钙华裙", "彝族风情"],
    "description": "四川凉山州的温泉瀑布奇观，温泉水形成巨大的钙华裙，被誉为世界最大的温泉瀑布。",
    "matchKeys": ["螺髻山", "Luoji", "螺髻山温泉"]
  },
  {
    "id": 33,
    "name": "康定二道桥温泉",
    "nameEn": "Kangding Erdaoqiao Hot Spring",
    "country": "中国",
    "region": "亚洲",
    "lat": 30.0500,
    "lng": 101.9667,
    "type": "野温泉",
    "temperature": 45,
    "altitude": 2600,
    "bestSeason": "秋冬",
    "highlights": ["康定情歌", "跑马山", "藏区温泉"],
    "description": "康定城外的天然温泉，因一首《康定情歌》闻名，四周雪山环绕，充满藏族风情。",
    "matchKeys": ["康定温泉", "Kangding", "二道桥温泉"]
  },
  {
    "id": 34,
    "name": "日喀则温泉",
    "nameEn": "Shigatse Hot Spring",
    "country": "中国",
    "region": "亚洲",
    "lat": 29.2667,
    "lng": 88.8833,
    "type": "野温泉",
    "temperature": 38,
    "altitude": 3840,
    "bestSeason": "夏秋",
    "highlights": ["后藏文化", "高原疗养", "扎什伦布寺"],
    "description": "西藏后藏地区的温泉，海拔近4000米，当地藏民世代在此沐浴疗养。",
    "matchKeys": ["日喀则温泉", "Shigatse", "日喀则"]
  },
  {
    "id": 35,
    "name": "德仲温泉",
    "nameEn": "Dezhong Hot Spring",
    "country": "中国",
    "region": "亚洲",
    "lat": 29.9500,
    "lng": 91.5333,
    "type": "野温泉",
    "temperature": 43,
    "altitude": 4200,
    "bestSeason": "夏秋",
    "highlights": ["天体沐浴", "藏传佛教", "深谷秘境"],
    "description": "拉萨东北部峡谷中的古老温泉，藏民在此进行天体沐浴已有千年历史，被视为神圣之地。",
    "matchKeys": ["德仲", "Dezhong", "德仲温泉"]
  },
  {
    "id": 36,
    "name": "罗托鲁瓦",
    "nameEn": "Rotorua",
    "country": "新西兰",
    "region": "大洋洲",
    "lat": -38.1368,
    "lng": 176.2497,
    "type": "地热奇观",
    "temperature": 42,
    "altitude": 280,
    "bestSeason": "全年",
    "highlights": ["毛利文化", "间歇泉", "泥浆池"],
    "description": "新西兰地热活动最活跃的城市，到处弥漫硫磺气味，毛利文化与地热奇观完美融合。",
    "matchKeys": ["罗托鲁瓦", "Rotorua"]
  },
  {
    "id": 37,
    "name": "怀奥塔普",
    "nameEn": "Wai-O-Tapu",
    "country": "新西兰",
    "region": "大洋洲",
    "lat": -38.3558,
    "lng": 176.3694,
    "type": "地热奇观",
    "temperature": 74,
    "altitude": 320,
    "bestSeason": "全年",
    "highlights": ["香槟池", "魔鬼墨水池", "七彩地热"],
    "description": "新西兰最色彩斑斓的地热景区，香槟池呈现明亮的橙色和绿色，像大地的调色盘。",
    "matchKeys": ["怀奥塔普", "Wai-O-Tapu"]
  },
  {
    "id": 38,
    "name": "热水海滩",
    "nameEn": "Hot Water Beach",
    "country": "新西兰",
    "region": "大洋洲",
    "lat": -36.8833,
    "lng": 175.8167,
    "type": "海滨温泉",
    "temperature": 64,
    "altitude": 0,
    "bestSeason": "全年",
    "highlights": ["挖沙泡汤", "DIY温泉", "科罗曼德半岛"],
    "description": "自己在沙滩上挖个坑就是私人温泉，地下热水透过沙层渗出，是世界最独特的温泉体验之一。",
    "matchKeys": ["热水海滩", "Hot Water Beach"]
  },
  {
    "id": 39,
    "name": "汉默温泉",
    "nameEn": "Hanmer Springs",
    "country": "新西兰",
    "region": "大洋洲",
    "lat": -42.5240,
    "lng": 172.8280,
    "type": "温泉小镇",
    "temperature": 40,
    "altitude": 370,
    "bestSeason": "冬季",
    "highlights": ["南阿尔卑斯山", "温泉小镇", "蹦极"],
    "description": "南岛山区的温泉度假小镇，被南阿尔卑斯山环绕，是新西兰最受欢迎的温泉目的地之一。",
    "matchKeys": ["汉默温泉", "Hanmer Springs"]
  },
  {
    "id": 40,
    "name": "波利尼西亚温泉",
    "nameEn": "Polynesian Spa",
    "country": "新西兰",
    "region": "大洋洲",
    "lat": -38.1422,
    "lng": 176.2514,
    "type": "地热温泉",
    "temperature": 42,
    "altitude": 280,
    "bestSeason": "全年",
    "highlights": ["湖景温泉", "酸碱双泉", "世界十大温泉"],
    "description": "罗托鲁瓦湖畔的顶级温泉SPA，曾被评为世界十大温泉之一，拥有酸性和碱性两种泉水。",
    "matchKeys": ["波利尼西亚温泉", "Polynesian Spa"]
  },
  {
    "id": 41,
    "name": "巴斯罗马浴场",
    "nameEn": "Roman Baths, Bath",
    "country": "英国",
    "region": "欧洲",
    "lat": 51.3812,
    "lng": -2.3590,
    "type": "地热温泉",
    "temperature": 46,
    "altitude": 20,
    "bestSeason": "夏季",
    "highlights": ["罗马遗迹", "乔治亚建筑", "世界遗产"],
    "description": "英国唯一的天然温泉城市，罗马人2000年前在此建造了宏伟的浴场，至今泉水仍在涌出。",
    "matchKeys": ["巴斯", "Bath", "罗马浴场"]
  },
  {
    "id": 42,
    "name": "塞切尼温泉",
    "nameEn": "Széchenyi Thermal Bath",
    "country": "匈牙利",
    "region": "欧洲",
    "lat": 47.5183,
    "lng": 19.0822,
    "type": "地热温泉",
    "temperature": 38,
    "altitude": 96,
    "bestSeason": "冬季",
    "highlights": ["欧洲最大温泉浴场", "新巴洛克建筑", "水中国际象棋"],
    "description": "布达佩斯城市公园中的新巴洛克风格温泉浴场，欧洲最大的药用温泉浴场之一，冬季户外蒸汽弥漫。",
    "matchKeys": ["塞切尼", "Széchenyi", "布达佩斯温泉"]
  },
  {
    "id": 43,
    "name": "棉花堡",
    "nameEn": "Pamukkale",
    "country": "土耳其",
    "region": "欧洲",
    "lat": 37.9204,
    "lng": 29.1187,
    "type": "地热奇观",
    "temperature": 36,
    "altitude": 200,
    "bestSeason": "春秋",
    "highlights": ["白色钙华梯田", "希拉波利斯古城", "世界遗产"],
    "description": "壮观的白色钙华梯田从山坡上层层叠叠铺展开来，温泉水在阳光下呈现梦幻的蓝白色。",
    "matchKeys": ["棉花堡", "Pamukkale"]
  },
  {
    "id": 44,
    "name": "萨图尼亚温泉",
    "nameEn": "Terme di Saturnia",
    "country": "意大利",
    "region": "欧洲",
    "lat": 42.6500,
    "lng": 11.5167,
    "type": "野温泉",
    "temperature": 37,
    "altitude": 300,
    "bestSeason": "全年",
    "highlights": ["天然瀑布温泉", "免费开放", "托斯卡纳田园"],
    "description": "托斯卡纳乡间的天然温泉瀑布，泉水形成层层叠叠的石灰华池，免费向公众开放。",
    "matchKeys": ["萨图尼亚", "Saturnia", "萨图尼亚温泉"]
  },
  {
    "id": 45,
    "name": "洛伊克巴德温泉",
    "nameEn": "Leukerbad Therme",
    "country": "瑞士",
    "region": "欧洲",
    "lat": 46.3833,
    "lng": 7.6333,
    "type": "温泉小镇",
    "temperature": 51,
    "altitude": 1411,
    "bestSeason": "冬季",
    "highlights": ["阿尔卑斯山景", "欧洲最大高山温泉", "滑雪温泉"],
    "description": "阿尔卑斯山中欧洲最大的高山温泉度假村，在海拔1400米的山谷中享受温泉与雪山美景。",
    "matchKeys": ["洛伊克巴德", "Leukerbad"]
  },
  {
    "id": 46,
    "name": "卡罗维瓦利",
    "nameEn": "Karlovy Vary",
    "country": "捷克",
    "region": "欧洲",
    "lat": 50.2306,
    "lng": 12.8713,
    "type": "温泉小镇",
    "temperature": 73,
    "altitude": 370,
    "bestSeason": "夏秋",
    "highlights": ["饮泉疗法", "温泉回廊", "电影节"],
    "description": "欧洲最著名的饮泉疗养地，拥有12个主要温泉和300多个小泉眼，以饮用温泉水治疗著称。",
    "matchKeys": ["卡罗维瓦利", "Karlovy Vary"]
  },
  {
    "id": 47,
    "name": "埃尔丁温泉世界",
    "nameEn": "Therme Erding",
    "country": "德国",
    "region": "欧洲",
    "lat": 48.2897,
    "lng": 11.8867,
    "type": "地热温泉",
    "temperature": 34,
    "altitude": 463,
    "bestSeason": "全年",
    "highlights": ["世界最大温泉水上乐园", "滑水道", "桑拿世界"],
    "description": "慕尼黑郊外世界最大的温泉水上乐园，拥有27条滑水道和多个主题桑拿区域。",
    "matchKeys": ["埃尔丁", "Therme Erding"]
  },
  {
    "id": 48,
    "name": "亚琛温泉",
    "nameEn": "Carolus Thermen Aachen",
    "country": "德国",
    "region": "欧洲",
    "lat": 50.7683,
    "lng": 6.0897,
    "type": "地热温泉",
    "temperature": 52,
    "altitude": 173,
    "bestSeason": "全年",
    "highlights": ["查理大帝温泉", "两千年历史", "三国交界"],
    "description": "查理大帝在此建都的原因之一就是温泉，拥有2000年温泉历史，位于德荷比三国交界处。",
    "matchKeys": ["亚琛", "Aachen", "亚琛温泉"]
  },
  {
    "id": 49,
    "name": "盖朗厄尔温泉",
    "nameEn": "Geiranger Fjord Hot Pool",
    "country": "挪威",
    "region": "欧洲",
    "lat": 62.1000,
    "lng": 7.0950,
    "type": "地热温泉",
    "temperature": 38,
    "altitude": 50,
    "bestSeason": "夏季",
    "highlights": ["峡湾景观", "世界遗产", "午夜阳光"],
    "description": "挪威峡湾边的温泉体验，在温暖的水池中欣赏壮丽的峡湾风光和瀑布。",
    "matchKeys": ["盖朗厄尔", "Geiranger"]
  },
  {
    "id": 50,
    "name": "黄石老忠实间歇泉",
    "nameEn": "Old Faithful, Yellowstone",
    "country": "美国",
    "region": "北美洲",
    "lat": 44.4605,
    "lng": -110.8281,
    "type": "间歇泉",
    "temperature": 95,
    "altitude": 2240,
    "bestSeason": "夏季",
    "highlights": ["定时喷发", "世界最著名间歇泉", "国家公园"],
    "description": "世界最著名的间歇泉，每隔约90分钟喷发一次，水柱高达56米，准时得像闹钟。",
    "matchKeys": ["老忠实", "Old Faithful", "黄石间歇泉"]
  },
  {
    "id": 51,
    "name": "大棱镜温泉",
    "nameEn": "Grand Prismatic Spring",
    "country": "美国",
    "region": "北美洲",
    "lat": 44.5251,
    "lng": -110.8382,
    "type": "地热奇观",
    "temperature": 70,
    "altitude": 2250,
    "bestSeason": "夏季",
    "highlights": ["世界最大温泉", "彩虹色彩", "航拍胜地"],
    "description": "美国最大的温泉，直径约110米，因微生物群落呈现出彩虹般的同心圆色彩，从空中俯瞰最为壮观。",
    "matchKeys": ["大棱镜", "Grand Prismatic", "大棱镜温泉"]
  },
  {
    "id": 52,
    "name": "猛犸温泉",
    "nameEn": "Mammoth Hot Springs",
    "country": "美国",
    "region": "北美洲",
    "lat": 44.9722,
    "lng": -110.6978,
    "type": "地热奇观",
    "temperature": 71,
    "altitude": 1900,
    "bestSeason": "夏秋",
    "highlights": ["钙华梯田", "活地质", "麋鹿群"],
    "description": "黄石公园北部的壮观钙华梯田，温泉不断沉积石灰华，形成不断变化的白色阶梯状地貌。",
    "matchKeys": ["猛犸温泉", "Mammoth Hot Springs"]
  },
  {
    "id": 53,
    "name": "班夫上温泉",
    "nameEn": "Banff Upper Hot Springs",
    "country": "加拿大",
    "region": "北美洲",
    "lat": 51.1567,
    "lng": -115.5608,
    "type": "地热温泉",
    "temperature": 39,
    "altitude": 1585,
    "bestSeason": "冬季",
    "highlights": ["落基山脉", "国家公园发源地", "雪山温泉"],
    "description": "加拿大落基山脉中的历史温泉，班夫国家公园因发现这处温泉而建立，冬季雪景中泡温泉体验绝佳。",
    "matchKeys": ["班夫温泉", "Banff Hot Springs", "班夫上温泉"]
  },
  {
    "id": 54,
    "name": "热泉城",
    "nameEn": "Hot Springs, Arkansas",
    "country": "美国",
    "region": "北美洲",
    "lat": 34.5217,
    "lng": -93.0424,
    "type": "温泉小镇",
    "temperature": 62,
    "altitude": 180,
    "bestSeason": "春秋",
    "highlights": ["浴屋一条街", "国家公园", "美国温泉文化"],
    "description": "美国最有名的温泉城市，温泉浴屋一条街被列为国家公园，曾是美国总统们最爱的疗养地。",
    "matchKeys": ["热泉城", "Hot Springs Arkansas"]
  },
  {
    "id": 55,
    "name": "几何温泉",
    "nameEn": "Termas Geométricas",
    "country": "智利",
    "region": "南美洲",
    "lat": -39.5167,
    "lng": -71.8833,
    "type": "野温泉",
    "temperature": 40,
    "altitude": 650,
    "bestSeason": "全年",
    "highlights": ["红色木栈道", "峡谷温泉", "设计感"],
    "description": "智利南部峡谷中的设计感温泉，红色木栈道串联17个不同温度的天然温泉池，与森林融为一体。",
    "matchKeys": ["几何温泉", "Termas Geométricas"]
  },
  {
    "id": 56,
    "name": "普里塔马温泉",
    "nameEn": "Termas de Puritama",
    "country": "智利",
    "region": "南美洲",
    "lat": -22.8333,
    "lng": -68.0167,
    "type": "野温泉",
    "temperature": 33,
    "altitude": 3475,
    "bestSeason": "全年",
    "highlights": ["阿塔卡马沙漠", "峡谷绿洲", "星空温泉"],
    "description": "阿塔卡马沙漠中的峡谷绿洲温泉，在世界最干燥的沙漠中泡温泉看银河星空。",
    "matchKeys": ["普里塔马", "Puritama"]
  },
  {
    "id": 57,
    "name": "热水镇",
    "nameEn": "Aguas Calientes",
    "country": "秘鲁",
    "region": "南美洲",
    "lat": -13.1547,
    "lng": -72.5228,
    "type": "温泉小镇",
    "temperature": 38,
    "altitude": 2040,
    "bestSeason": "旱季",
    "highlights": ["马丘比丘门户", "安第斯温泉", "印加文化"],
    "description": "通往马丘比丘的门户小镇，镇名意为热水，镇中有天然温泉可供徒步后疲劳恢复。",
    "matchKeys": ["热水镇", "Aguas Calientes", "马丘比丘温泉"]
  },
  {
    "id": 58,
    "name": "阿雷纳尔温泉",
    "nameEn": "Tabacón Hot Springs",
    "country": "哥斯达黎加",
    "region": "北美洲",
    "lat": 10.4833,
    "lng": -84.7167,
    "type": "火山温泉",
    "temperature": 39,
    "altitude": 440,
    "bestSeason": "旱季",
    "highlights": ["火山脚下", "热带雨林", "温泉河"],
    "description": "阿雷纳尔火山脚下的温泉度假村，地热加热的河水流过热带雨林，形成天然的温泉阶梯。",
    "matchKeys": ["阿雷纳尔", "Tabacón", "Arenal"]
  },
  {
    "id": 59,
    "name": "珍纳温泉",
    "nameEn": "Chena Hot Springs",
    "country": "美国",
    "region": "北美洲",
    "lat": 65.0528,
    "lng": -146.0558,
    "type": "野温泉",
    "temperature": 41,
    "altitude": 370,
    "bestSeason": "冬季",
    "highlights": ["极光温泉", "冰雕博物馆", "阿拉斯加荒野"],
    "description": "阿拉斯加费尔班克斯附近的温泉度假村，冬季在零下40度的极寒中泡温泉看北极光。",
    "matchKeys": ["珍纳温泉", "Chena Hot Springs"]
  },
  {
    "id": 60,
    "name": "湄宏顺温泉",
    "nameEn": "Pha Bong Hot Spring",
    "country": "泰国",
    "region": "亚洲",
    "lat": 19.2833,
    "lng": 97.9833,
    "type": "野温泉",
    "temperature": 80,
    "altitude": 300,
    "bestSeason": "凉季",
    "highlights": ["泰北秘境", "温泉煮蛋", "少数民族"],
    "description": "泰国北部湄宏顺府的天然温泉，当地人用高温泉水煮鸡蛋和泡脚，周围居住着多个少数民族。",
    "matchKeys": ["湄宏顺温泉", "Mae Hong Son", "Pha Bong"]
  },
  {
    "id": 61,
    "name": "北投温泉",
    "nameEn": "Beitou Hot Spring",
    "country": "中国台湾",
    "region": "亚洲",
    "lat": 25.1364,
    "lng": 121.5072,
    "type": "温泉小镇",
    "temperature": 45,
    "altitude": 50,
    "bestSeason": "冬季",
    "highlights": ["北投石", "地热谷", "日式温泉旅馆"],
    "description": "台北市区内的温泉胜地，以世界唯一以地名命名的矿石'北投石'闻名，地热谷蒸汽弥漫如仙境。",
    "matchKeys": ["北投", "Beitou", "北投温泉"]
  },
  {
    "id": 62,
    "name": "拉廊温泉",
    "nameEn": "Raksa Warin Hot Spring",
    "country": "泰国",
    "region": "亚洲",
    "lat": 9.9500,
    "lng": 98.6333,
    "type": "地热温泉",
    "temperature": 65,
    "altitude": 10,
    "bestSeason": "凉季",
    "highlights": ["安达曼海岸", "矿泉疗养", "热带风情"],
    "description": "泰国南部拉廊府的温泉，靠近安达曼海，泉水富含矿物质，是泰国最著名的温泉疗养地之一。",
    "matchKeys": ["拉廊", "Ranong", "拉廊温泉"]
  },
  {
    "id": 63,
    "name": "地狱谷野猿公苑",
    "nameEn": "Jigokudani Monkey Park",
    "country": "日本",
    "region": "亚洲",
    "lat": 36.7331,
    "lng": 138.4628,
    "type": "野温泉",
    "temperature": 42,
    "altitude": 850,
    "bestSeason": "冬季",
    "highlights": ["雪猴泡温泉", "世界唯一", "野生猕猴"],
    "description": "世界上唯一可以看到野生猕猴泡温泉的地方，冬季雪中猴子悠然泡汤的画面闻名全球。",
    "matchKeys": ["地狱谷", "Jigokudani", "雪猴温泉"]
  },
  {
    "id": 64,
    "name": "波令温泉",
    "nameEn": "Poring Hot Springs",
    "country": "马来西亚",
    "region": "亚洲",
    "lat": 6.0467,
    "lng": 116.6967,
    "type": "野温泉",
    "temperature": 43,
    "altitude": 550,
    "bestSeason": "旱季",
    "highlights": ["京那巴鲁山", "热带雨林", "树冠吊桥"],
    "description": "沙巴京那巴鲁山脚下的温泉，被婆罗洲热带雨林环绕，附近有壮观的树冠吊桥步道。",
    "matchKeys": ["波令温泉", "Poring Hot Springs"]
  },
  {
    "id": 65,
    "name": "达洛尔",
    "nameEn": "Dallol",
    "country": "埃塞俄比亚",
    "region": "非洲",
    "lat": 14.2422,
    "lng": 40.2956,
    "type": "地热奇观",
    "temperature": 108,
    "altitude": -48,
    "bestSeason": "冬季",
    "highlights": ["外星地貌", "硫磺泉", "地球最热"],
    "description": "地球上最炎热的有人居住地之一，达纳基尔洼地中的超现实地热景观，酸性温泉呈现荧光黄绿色。",
    "matchKeys": ["达洛尔", "Dallol"]
  },
  {
    "id": 66,
    "name": "哈马姆萨利赫温泉",
    "nameEn": "Hammam Essalihine",
    "country": "阿尔及利亚",
    "region": "非洲",
    "lat": 35.4833,
    "lng": 6.9167,
    "type": "地热温泉",
    "temperature": 70,
    "altitude": 900,
    "bestSeason": "冬春",
    "highlights": ["罗马浴场遗址", "北非温泉", "奥雷斯山脉"],
    "description": "阿尔及利亚奥雷斯山脉中的古罗马温泉遗址，当地人称之为'治愈之泉'，已使用两千年。",
    "matchKeys": ["哈马姆萨利赫", "Hammam Essalihine"]
  },
  {
    "id": 67,
    "name": "马因温泉",
    "nameEn": "Ma'in Hot Springs",
    "country": "约旦",
    "region": "亚洲",
    "lat": 31.6167,
    "lng": 35.6167,
    "type": "火山温泉",
    "temperature": 63,
    "altitude": -264,
    "bestSeason": "冬春",
    "highlights": ["死海附近", "温泉瀑布", "希律王最爱"],
    "description": "约旦死海东岸峡谷中的温泉瀑布群，海拔低于海平面264米，据说古代希律王曾在此疗养。",
    "matchKeys": ["马因温泉", "Ma'in Hot Springs"]
  },
  {
    "id": 68,
    "name": "艾因谢法温泉",
    "nameEn": "Ain Echifa",
    "country": "突尼斯",
    "region": "非洲",
    "lat": 36.7833,
    "lng": 8.9500,
    "type": "地热温泉",
    "temperature": 48,
    "altitude": 600,
    "bestSeason": "春秋",
    "highlights": ["北非疗养", "橄榄树林", "柏柏尔文化"],
    "description": "突尼斯北部山区的温泉疗养地，泉水富含硫化物，被当地柏柏尔人视为圣泉。",
    "matchKeys": ["艾因谢法", "Ain Echifa"]
  },
  {
    "id": 69,
    "name": "博戈里亚湖",
    "nameEn": "Lake Bogoria",
    "country": "肯尼亚",
    "region": "非洲",
    "lat": 0.2500,
    "lng": 36.1000,
    "type": "间歇泉",
    "temperature": 96,
    "altitude": 990,
    "bestSeason": "旱季",
    "highlights": ["火烈鸟", "间歇泉群", "东非大裂谷"],
    "description": "东非大裂谷中的碱性湖泊，湖畔有200多个间歇泉和温泉，数百万只火烈鸟在此栖息。",
    "matchKeys": ["博戈里亚", "Lake Bogoria"]
  },
  {
    "id": 70,
    "name": "欺骗岛温泉",
    "nameEn": "Deception Island Hot Spring",
    "country": "南极洲",
    "region": "南极洲",
    "lat": -62.9500,
    "lng": -60.6333,
    "type": "火山温泉",
    "temperature": 25,
    "altitude": 0,
    "bestSeason": "南半球夏季",
    "highlights": ["南极洲唯一温泉", "火山口海湾", "企鹅"],
    "description": "南极洲唯一可以泡温泉的地方，在活火山口形成的海湾中，挖开黑沙就有温热的地热水涌出。",
    "matchKeys": ["欺骗岛", "Deception Island"]
  },
  {
    "id": 71,
    "name": "熔岩温泉",
    "nameEn": "Lava Hot Springs",
    "country": "美国",
    "region": "北美洲",
    "lat": 42.6194,
    "lng": -112.0111,
    "type": "地热温泉",
    "temperature": 44,
    "altitude": 1524,
    "bestSeason": "全年",
    "highlights": ["无硫天然温泉", "奥运游泳池", "爱达荷小镇"],
    "description": "爱达荷州的天然温泉小镇，泉水无硫无臭，五个露天温泉池温度各不相同，是美国西部经典温泉目的地。",
    "matchKeys": ["熔岩温泉", "Lava Hot Springs"]
  },
  {
    "id": 72,
    "name": "邓顿温泉",
    "nameEn": "Dunton Hot Springs",
    "country": "美国",
    "region": "北美洲",
    "lat": 37.7667,
    "lng": -108.0833,
    "type": "野温泉",
    "temperature": 42,
    "altitude": 2743,
    "bestSeason": "冬季",
    "highlights": ["鬼城改造", "奢华度假村", "落基山脉"],
    "description": "科罗拉多落基山脉中由19世纪鬼城改造的奢华温泉度假村，温泉池直接建在历史矿井旁。",
    "matchKeys": ["邓顿温泉", "Dunton Hot Springs"]
  },
  {
    "id": 73,
    "name": "盖朗德温泉",
    "nameEn": "Gellért Thermal Bath",
    "country": "匈牙利",
    "region": "欧洲",
    "lat": 47.4833,
    "lng": 19.0533,
    "type": "地热温泉",
    "temperature": 40,
    "altitude": 96,
    "bestSeason": "全年",
    "highlights": ["新艺术建筑", "波浪池", "百年浴场"],
    "description": "布达佩斯最华丽的温泉浴场，新艺术风格建筑内部装饰精美，拥有室内波浪池和多种药浴。",
    "matchKeys": ["盖朗德", "Gellért", "盖朗德温泉"]
  },
  {
    "id": 74,
    "name": "蓝山温泉",
    "nameEn": "Blue Mountains Hot Spring",
    "country": "牙买加",
    "region": "北美洲",
    "lat": 18.1833,
    "lng": -76.5500,
    "type": "野温泉",
    "temperature": 35,
    "altitude": 500,
    "bestSeason": "冬季",
    "highlights": ["加勒比海", "蓝山咖啡", "热带温泉"],
    "description": "牙买加蓝山山脉中的天然温泉，被热带植被环绕，是加勒比海地区少见的温泉体验。",
    "matchKeys": ["蓝山温泉", "Blue Mountains Hot Spring"]
  },
  {
    "id": 75,
    "name": "吉尔吉斯温泉",
    "nameEn": "Altyn-Arashan Hot Spring",
    "country": "吉尔吉斯斯坦",
    "region": "亚洲",
    "lat": 42.5000,
    "lng": 78.4167,
    "type": "野温泉",
    "temperature": 38,
    "altitude": 3000,
    "bestSeason": "夏季",
    "highlights": ["天山山脉", "高山草甸", "游牧文化"],
    "description": "天山山脉深处的野温泉，需要骑马或徒步数小时到达，在海拔3000米的高山草甸中泡温泉。",
    "matchKeys": ["阿尔金阿拉善", "Altyn-Arashan"]
  },
  {
    "id": 76,
    "name": "奥纳鲁阿温泉",
    "nameEn": "Onaruto Hot Spring",
    "country": "日本",
    "region": "亚洲",
    "lat": 34.1667,
    "lng": 134.6333,
    "type": "海滨温泉",
    "temperature": 38,
    "altitude": 5,
    "bestSeason": "全年",
    "highlights": ["鸣门海峡漩涡", "海景温泉", "淡路岛"],
    "description": "德岛鸣门海峡旁的海滨温泉，可一边泡汤一边眺望著名的鸣门漩涡和大鸣门桥。",
    "matchKeys": ["鸣门温泉", "Onaruto"]
  },
  {
    "id": 77,
    "name": "帕米尔温泉",
    "nameEn": "Bibi Fatima Hot Spring",
    "country": "塔吉克斯坦",
    "region": "亚洲",
    "lat": 38.5000,
    "lng": 72.0500,
    "type": "野温泉",
    "temperature": 40,
    "altitude": 2800,
    "bestSeason": "夏季",
    "highlights": ["帕米尔高原", "丝绸之路", "瀑布温泉"],
    "description": "帕米尔高原上的传奇温泉，以先知法蒂玛命名，温泉从岩壁瀑布中涌出，被当地人视为圣水。",
    "matchKeys": ["帕米尔温泉", "Bibi Fatima"]
  },
  {
    "id": 78,
    "name": "格雷梅温泉",
    "nameEn": "Göreme Hot Spring",
    "country": "土耳其",
    "region": "欧洲",
    "lat": 38.6431,
    "lng": 34.8287,
    "type": "地热温泉",
    "temperature": 36,
    "altitude": 1000,
    "bestSeason": "春秋",
    "highlights": ["卡帕多奇亚", "热气球", "洞穴温泉"],
    "description": "卡帕多奇亚地区的温泉，在奇特的火山岩地貌中享受温泉，清晨可看到漫天热气球升空。",
    "matchKeys": ["格雷梅温泉", "Göreme", "卡帕多奇亚温泉"]
  },
  {
    "id": 79,
    "name": "尼加拉瓜温泉",
    "nameEn": "Aguas Termales de Tipitapa",
    "country": "尼加拉瓜",
    "region": "北美洲",
    "lat": 12.2000,
    "lng": -86.0833,
    "type": "火山温泉",
    "temperature": 42,
    "altitude": 50,
    "bestSeason": "旱季",
    "highlights": ["火山之国", "中美洲温泉", "湖畔温泉"],
    "description": "尼加拉瓜火山带上的温泉群，中美洲火山活动带来丰富的地热资源。",
    "matchKeys": ["尼加拉瓜温泉", "Tipitapa"]
  },
  {
    "id": 80,
    "name": "维诺格拉德温泉",
    "nameEn": "Velingrad Hot Spring",
    "country": "保加利亚",
    "region": "欧洲",
    "lat": 42.0267,
    "lng": 23.9917,
    "type": "温泉小镇",
    "temperature": 91,
    "altitude": 745,
    "bestSeason": "全年",
    "highlights": ["巴尔干温泉之都", "松林环绕", "矿泉疗养"],
    "description": "被誉为巴尔干半岛的温泉之都，拥有80多个泉眼，水温从22°C到91°C不等，松林中的矿泉疗养胜地。",
    "matchKeys": ["维诺格拉德", "Velingrad"]
  },
  {
    "id": 81,
    "name": "鬼怒川温泉",
    "nameEn": "Kinugawa Onsen",
    "country": "日本",
    "region": "亚洲",
    "lat": 36.8200,
    "lng": 139.7200,
    "type": "温泉小镇",
    "temperature": 45,
    "altitude": 300,
    "bestSeason": "秋季",
    "highlights": ["溪谷绝景", "东京后花园", "大型温泉旅馆"],
    "description": "栃木县鬼怒川溪谷沿岸的温泉街，自江户时代起便是关东地区重要的疗养温泉，峡谷两岸旅馆林立。",
    "matchKeys": ["鬼怒川", "Kinugawa", "鬼怒川温泉"]
  },
  {
    "id": 82,
    "name": "箱根大涌谷",
    "nameEn": "Hakone Owakudani",
    "country": "日本",
    "region": "亚洲",
    "lat": 35.2430,
    "lng": 139.0268,
    "type": "地热奇观",
    "temperature": 80,
    "altitude": 1044,
    "bestSeason": "春秋",
    "highlights": ["黑�的玉子", "火山喷气", "富士山全景"],
    "description": "箱根火山最活跃的喷气地带，硫磺蒸汽弥漫，用地热蒸煮的黑色温泉蛋据说可延寿七年。",
    "matchKeys": ["大涌谷", "Owakudani", "箱根大涌谷"]
  },
  {
    "id": 83,
    "name": "熱海温泉",
    "nameEn": "Atami Onsen",
    "country": "日本",
    "region": "亚洲",
    "lat": 35.0964,
    "lng": 139.0714,
    "type": "温泉小镇",
    "temperature": 63,
    "altitude": 10,
    "bestSeason": "冬季",
    "highlights": ["海景温泉", "花火大会", "德川家康御用"],
    "description": "日本三大温泉之一，面朝相模湾的海滨温泉城市，自古是将军贵族的疗养地，夏季海上花火大会闻名。",
    "matchKeys": ["熱海", "Atami", "热海温泉"]
  },
  {
    "id": 84,
    "name": "伊豆温泉",
    "nameEn": "Izu Onsen",
    "country": "日本",
    "region": "亚洲",
    "lat": 34.9714,
    "lng": 138.9456,
    "type": "温泉小镇",
    "temperature": 50,
    "altitude": 30,
    "bestSeason": "春季",
    "highlights": ["伊豆舞娘", "河津樱花", "海鲜美食"],
    "description": "伊豆半岛拥有众多温泉乡，川端康成《伊豆舞娘》的舞台，早春河津樱花与温泉是绝佳组合。",
    "matchKeys": ["伊豆", "Izu", "伊豆温泉"]
  },
  {
    "id": 85,
    "name": "田沢湖温泉",
    "nameEn": "Tazawako Onsen",
    "country": "日本",
    "region": "亚洲",
    "lat": 39.7300,
    "lng": 140.6900,
    "type": "温泉小镇",
    "temperature": 46,
    "altitude": 250,
    "bestSeason": "秋冬",
    "highlights": ["日本最深湖", "辰子像", "秋田驹ヶ岳"],
    "description": "秋田县田沢湖畔的温泉群，毗邻日本最深的湖泊，湖水蓝绿如宝石，冬季雪景中泡汤尤为惬意。",
    "matchKeys": ["田沢湖", "Tazawako", "田沢湖温泉"]
  },
  {
    "id": 86,
    "name": "蔵王温泉",
    "nameEn": "Zao Onsen",
    "country": "日本",
    "region": "亚洲",
    "lat": 38.1700,
    "lng": 140.3967,
    "type": "火山温泉",
    "temperature": 47,
    "altitude": 880,
    "bestSeason": "冬季",
    "highlights": ["树冰奇观", "强酸性硫黄泉", "滑雪温泉"],
    "description": "山形县蔵王连峰的火山温泉，冬季树冰（雪怪）景观举世闻名，强酸性泉水对皮肤有极佳美容效果。",
    "matchKeys": ["蔵王", "Zao", "蔵王温泉"]
  },
  {
    "id": 87,
    "name": "酸ヶ湯温泉",
    "nameEn": "Sukayu Onsen",
    "country": "日本",
    "region": "亚洲",
    "lat": 40.6503,
    "lng": 140.8500,
    "type": "野温泉",
    "temperature": 48,
    "altitude": 890,
    "bestSeason": "冬季",
    "highlights": ["千人风吕", "日本最大积雪", "混浴传统"],
    "description": "青森县八甲田山中的秘汤名所，拥有可容纳千人的巨大桧木浴堂'千人风吕'，冬季积雪常超5米。",
    "matchKeys": ["酸ヶ湯", "Sukayu", "酸ヶ湯温泉"]
  },
  {
    "id": 88,
    "name": "鳴子温泉",
    "nameEn": "Naruko Onsen",
    "country": "日本",
    "region": "亚洲",
    "lat": 38.7317,
    "lng": 140.7250,
    "type": "温泉小镇",
    "temperature": 55,
    "altitude": 230,
    "bestSeason": "秋季",
    "highlights": ["鳴子峡红叶", "鳴子木芥子人偶", "七种泉质"],
    "description": "宫城县�的温泉乡，拥有日本11种温泉泉质中的7种，秋季鳴子峡红叶隧道美景令人叹为观止。",
    "matchKeys": ["鳴子", "Naruko", "鳴子温泉"]
  },
  {
    "id": 89,
    "name": "飛騨高山温泉",
    "nameEn": "Hida Takayama Onsen",
    "country": "日本",
    "region": "亚洲",
    "lat": 36.1461,
    "lng": 137.2519,
    "type": "温泉小镇",
    "temperature": 35,
    "altitude": 573,
    "bestSeason": "冬季",
    "highlights": ["小京都", "飛騨牛", "古い町並み"],
    "description": "岐阜県飛騨地区的温泉，高山市保留了江户时代的古街风貌，被誉为飛騨的小京都，冬季雪景别致。",
    "matchKeys": ["飛騨高山", "Takayama", "飛騨高山温泉"]
  },
  {
    "id": 90,
    "name": "湯布院温泉",
    "nameEn": "Yufuin Onsen",
    "country": "日本",
    "region": "亚洲",
    "lat": 33.2669,
    "lng": 131.3681,
    "type": "温泉小镇",
    "temperature": 44,
    "altitude": 450,
    "bestSeason": "秋冬",
    "highlights": ["金鱗湖晨雾", "艺术小镇", "由布岳"],
    "description": "大分县的文艺温泉小镇，清晨金鱗湖上薄雾缭绕如梦似幻，由布岳山下散布着美术馆和特色商店。",
    "matchKeys": ["湯布院", "Yufuin", "湯布院温泉", "由布院"]
  },
  {
    "id": 91,
    "name": "从化温泉",
    "nameEn": "Conghua Hot Spring",
    "country": "中国",
    "region": "亚洲",
    "lat": 23.6333,
    "lng": 113.5833,
    "type": "地热温泉",
    "temperature": 49,
    "altitude": 50,
    "bestSeason": "冬季",
    "highlights": ["岭南温泉之乡", "碳酸泉", "荔枝之乡"],
    "description": "广州市从化区的天然温泉，泉水富含碳酸和微量元素，是华南地区最著名的温泉疗养胜地。",
    "matchKeys": ["从化", "Conghua", "从化温泉"]
  },
  {
    "id": 92,
    "name": "南京汤山温泉",
    "nameEn": "Nanjing Tangshan Hot Spring",
    "country": "中国",
    "region": "亚洲",
    "lat": 32.0500,
    "lng": 118.9667,
    "type": "地热温泉",
    "temperature": 60,
    "altitude": 30,
    "bestSeason": "冬季",
    "highlights": ["中国四大温泉", "千年历史", "古猿人遗址"],
    "description": "南京东郊的千年温泉，位列中国四大温泉之一，南朝以来帝王将相常来沐浴，附近有古猿人洞遗址。",
    "matchKeys": ["汤山", "Tangshan", "南京汤山温泉", "汤山温泉"]
  },
  {
    "id": 93,
    "name": "五大连池矿泉",
    "nameEn": "Wudalianchi Mineral Springs",
    "country": "中国",
    "region": "亚洲",
    "lat": 48.7500,
    "lng": 126.1000,
    "type": "火山温泉",
    "temperature": 14,
    "altitude": 280,
    "bestSeason": "夏季",
    "highlights": ["火山群", "冷矿泉", "世界地质公园"],
    "description": "黑龙江省五大连池火山群的冷矿泉，泉水含大量二氧化碳和微量元素，以饮用疗法闻名，是世界三大冷泉之一。",
    "matchKeys": ["五大连池", "Wudalianchi", "五大连池矿泉"]
  },
  {
    "id": 94,
    "name": "华清池温泉",
    "nameEn": "Huaqing Hot Spring",
    "country": "中国",
    "region": "亚洲",
    "lat": 34.3667,
    "lng": 109.2167,
    "type": "地热温泉",
    "temperature": 43,
    "altitude": 500,
    "bestSeason": "全年",
    "highlights": ["杨贵妃御汤", "唐代皇家温泉", "骊山秋色"],
    "description": "西安临潼骊山脚下的皇家温泉，唐玄宗与杨贵妃在此沐浴的海棠汤遗址犹存，已有三千年历史。",
    "matchKeys": ["华清池", "Huaqing", "华清池温泉"]
  },
  {
    "id": 95,
    "name": "福州温泉",
    "nameEn": "Fuzhou Hot Spring",
    "country": "中国",
    "region": "亚洲",
    "lat": 26.0819,
    "lng": 119.2964,
    "type": "地热温泉",
    "temperature": 50,
    "altitude": 10,
    "bestSeason": "冬季",
    "highlights": ["温泉之都", "城市温泉", "千年汤史"],
    "description": "福州市区内有天然温泉涌出，是中国少有的城市中心拥有温泉的省会城市，晋代便有温泉浴场记载。",
    "matchKeys": ["福州温泉", "Fuzhou", "福州"]
  },
  {
    "id": 96,
    "name": "黄山温泉",
    "nameEn": "Huangshan Hot Spring",
    "country": "中国",
    "region": "亚洲",
    "lat": 30.1167,
    "lng": 118.1667,
    "type": "地热温泉",
    "temperature": 42,
    "altitude": 650,
    "bestSeason": "冬季",
    "highlights": ["黄山四绝之一", "朱砂泉", "登山起点"],
    "description": "黄山脚下的朱砂泉，与奇松怪石云海齐名为黄山四绝之一，泉水清澈甘冽，登山前后泡汤恢复体力。",
    "matchKeys": ["黄山温泉", "Huangshan Hot Spring"]
  },
  {
    "id": 97,
    "name": "庐山温泉",
    "nameEn": "Lushan Hot Spring",
    "country": "中国",
    "region": "亚洲",
    "lat": 29.5667,
    "lng": 115.9833,
    "type": "地热温泉",
    "temperature": 72,
    "altitude": 350,
    "bestSeason": "秋冬",
    "highlights": ["星子温泉", "庐山胜景", "历史名泉"],
    "description": "江西庐山南麓星子县的温泉，泉水温度高达72°C，自唐代起便是文人雅士沐浴疗养之地。",
    "matchKeys": ["庐山温泉", "Lushan", "庐山"]
  },
  {
    "id": 98,
    "name": "雅安周公山温泉",
    "nameEn": "Ya'an Zhougongshan Hot Spring",
    "country": "中国",
    "region": "亚洲",
    "lat": 29.9667,
    "lng": 103.0167,
    "type": "地热温泉",
    "temperature": 35,
    "altitude": 700,
    "bestSeason": "冬季",
    "highlights": ["雨城温泉", "茶马古道", "森林氡泉"],
    "description": "四川雅安周公山下的森林温泉，泉水富含氡元素，四周竹林茂密，自古是茶马古道上的歇脚暖身之所。",
    "matchKeys": ["周公山", "Zhougongshan", "雅安温泉"]
  },
  {
    "id": 99,
    "name": "怒江六库温泉",
    "nameEn": "Nujiang Liuku Hot Spring",
    "country": "中国",
    "region": "亚洲",
    "lat": 25.8667,
    "lng": 98.8500,
    "type": "野温泉",
    "temperature": 55,
    "altitude": 860,
    "bestSeason": "冬春",
    "highlights": ["澡塘会", "傈僳族沐浴节", "怒江峡谷"],
    "description": "云南怒江峡谷中的天然温泉，每年春节傈僳族在此举办盛大的澡塘会，数千人露天泡泉欢庆新年。",
    "matchKeys": ["怒江温泉", "六库温泉", "澡塘会"]
  },
  {
    "id": 100,
    "name": "赫瓦姆斯维克温泉",
    "nameEn": "Hvammsvík Hot Springs",
    "country": "冰岛",
    "region": "欧洲",
    "lat": 64.3333,
    "lng": -21.5833,
    "type": "地热温泉",
    "temperature": 41,
    "altitude": 0,
    "bestSeason": "全年",
    "highlights": ["峡湾温泉", "八个天然池", "潮汐变化"],
    "description": "冰岛西南部鲸鱼峡湾畔的地热温泉群，八个不同温度的天然温泉池沿海岸分布，水温随潮汐变化。",
    "matchKeys": ["赫瓦姆斯维克", "Hvammsvík"]
  },
  {
    "id": 101,
    "name": "劳加达斯劳伊格泳池",
    "nameEn": "Laugardalslaug",
    "country": "冰岛",
    "region": "欧洲",
    "lat": 64.1444,
    "lng": -21.8692,
    "type": "地热温泉",
    "temperature": 40,
    "altitude": 15,
    "bestSeason": "全年",
    "highlights": ["雷克雅未克最大泳池", "地热加热", "本地人最爱"],
    "description": "雷克雅未克最大的地热泳池，供市民日常使用的温泉设施，设有多个热水池和蒸汽浴，是体验冰岛温泉文化的好去处。",
    "matchKeys": ["劳加达斯劳伊格", "Laugardalslaug"]
  },
  {
    "id": 102,
    "name": "斯图隆加劳伊格野泉",
    "nameEn": "Sturlungalaug",
    "country": "冰岛",
    "region": "欧洲",
    "lat": 64.7250,
    "lng": -21.1167,
    "type": "野温泉",
    "temperature": 38,
    "altitude": 150,
    "bestSeason": "夏季",
    "highlights": ["中世纪萨迦遗址", "隐秘石砌池", "冰岛历史"],
    "description": "冰岛西部的中世纪野温泉，据传维京时代萨迦英雄斯图隆加在此沐浴，石砌温泉池保留至今。",
    "matchKeys": ["斯图隆加劳伊格", "Sturlungalaug"]
  },
  {
    "id": 103,
    "name": "维提火山口湖",
    "nameEn": "Víti Crater Lake",
    "country": "冰岛",
    "region": "欧洲",
    "lat": 65.0500,
    "lng": -16.7833,
    "type": "火山温泉",
    "temperature": 25,
    "altitude": 1060,
    "bestSeason": "夏季",
    "highlights": ["火山口湖", "碧蓝湖水", "高地徒步"],
    "description": "冰岛阿斯基亚火山口内的碧蓝温泉湖，'Víti'意为地狱，湖水呈现梦幻的蓝绿色，需四驱车穿越高地到达。",
    "matchKeys": ["维提", "Víti", "阿斯基亚"]
  },
  {
    "id": 104,
    "name": "陶卡努温泉",
    "nameEn": "Tokaanu Thermal Pools",
    "country": "新西兰",
    "region": "大洋洲",
    "lat": -38.9833,
    "lng": 175.7667,
    "type": "地热温泉",
    "temperature": 38,
    "altitude": 357,
    "bestSeason": "全年",
    "highlights": ["陶波湖畔", "地热步道", "毛利文化"],
    "description": "新西兰北岛陶波湖南端的地热温泉区，有免费的地热步道和公共温泉池，毛利村落环绕其间。",
    "matchKeys": ["陶卡努", "Tokaanu"]
  },
  {
    "id": 105,
    "name": "奥拉基科拉科",
    "nameEn": "Orakei Korako",
    "country": "新西兰",
    "region": "大洋洲",
    "lat": -38.4667,
    "lng": 176.1833,
    "type": "地热奇观",
    "temperature": 70,
    "altitude": 300,
    "bestSeason": "全年",
    "highlights": ["隐秘谷", "硅华台地", "间歇泉群"],
    "description": "新西兰北岛的'隐秘山谷'，需乘船渡湖到达，拥有新西兰最大的硅华台地和35个活跃间歇泉。",
    "matchKeys": ["奥拉基科拉科", "Orakei Korako"]
  },
  {
    "id": 106,
    "name": "蒂普亚地热谷",
    "nameEn": "Te Puia",
    "country": "新西兰",
    "region": "大洋洲",
    "lat": -38.1622,
    "lng": 176.2528,
    "type": "间歇泉",
    "temperature": 85,
    "altitude": 300,
    "bestSeason": "全年",
    "highlights": ["波胡图间歇泉", "毛利雕刻", "泥浆池"],
    "description": "罗托鲁瓦的地标景点，波胡图间歇泉每天喷发约20次，水柱达30米，是南半球最大的活跃间歇泉。",
    "matchKeys": ["蒂普亚", "Te Puia", "波胡图间歇泉"]
  },
  {
    "id": 107,
    "name": "煤油溪温泉",
    "nameEn": "Kerosene Creek",
    "country": "新西兰",
    "region": "大洋洲",
    "lat": -38.2833,
    "lng": 176.3167,
    "type": "野温泉",
    "temperature": 37,
    "altitude": 320,
    "bestSeason": "全年",
    "highlights": ["森林温泉河", "免费开放", "瀑布温泉"],
    "description": "罗托鲁瓦南部丛林中的免费野温泉溪流，温暖的溪水穿过原始森林形成天然的温泉瀑布和水潭。",
    "matchKeys": ["煤油溪", "Kerosene Creek"]
  },
  {
    "id": 108,
    "name": "怀芒古火山谷",
    "nameEn": "Waimangu Volcanic Valley",
    "country": "新西兰",
    "region": "大洋洲",
    "lat": -38.2833,
    "lng": 176.3833,
    "type": "地热奇观",
    "temperature": 53,
    "altitude": 340,
    "bestSeason": "全年",
    "highlights": ["煎锅湖", "世界最年轻地热系统", "火山生态"],
    "description": "世界最年轻的地热生态系统，1886年塔拉威拉火山喷发后形成，拥有世界最大的热水湖'煎锅湖'。",
    "matchKeys": ["怀芒古", "Waimangu"]
  },
  {
    "id": 109,
    "name": "巴尼迪卢卡温泉",
    "nameEn": "Bagni di Lucca",
    "country": "意大利",
    "region": "欧洲",
    "lat": 44.0117,
    "lng": 10.5883,
    "type": "温泉小镇",
    "temperature": 54,
    "altitude": 150,
    "bestSeason": "春秋",
    "highlights": ["托斯卡纳山谷", "拜伦雪莱最爱", "蒸汽洞穴"],
    "description": "意大利托斯卡纳山谷中的古老温泉小镇，拜伦、雪莱等浪漫主义诗人曾在此疗养，天然蒸汽洞穴独具特色。",
    "matchKeys": ["巴尼迪卢卡", "Bagni di Lucca"]
  },
  {
    "id": 110,
    "name": "伊斯基亚岛温泉",
    "nameEn": "Ischia Thermal Springs",
    "country": "意大利",
    "region": "欧洲",
    "lat": 40.7308,
    "lng": 13.8958,
    "type": "火山温泉",
    "temperature": 40,
    "altitude": 10,
    "bestSeason": "春夏",
    "highlights": ["那不勒斯湾岛屿", "温泉花园", "火山泥疗"],
    "description": "那不勒斯湾中的火山岛，拥有103个温泉泉眼和69处喷气孔，波塞冬花园温泉公园是地中海最大的户外温泉。",
    "matchKeys": ["伊斯基亚", "Ischia"]
  },
  {
    "id": 111,
    "name": "维希温泉",
    "nameEn": "Vichy Thermal Spa",
    "country": "法国",
    "region": "欧洲",
    "lat": 46.1264,
    "lng": 3.4264,
    "type": "温泉小镇",
    "temperature": 66,
    "altitude": 263,
    "bestSeason": "夏秋",
    "highlights": ["法式温泉疗养", "饮泉文化", "拿破仑三世"],
    "description": "法国最著名的温泉疗养城市，以饮泉疗法闻名于世，拿破仑三世曾大力建设此地，Vichy护肤品牌源于此泉。",
    "matchKeys": ["维希", "Vichy", "维希温泉"]
  },
  {
    "id": 112,
    "name": "依云温泉",
    "nameEn": "Évian-les-Bains",
    "country": "法国",
    "region": "欧洲",
    "lat": 46.4006,
    "lng": 6.5886,
    "type": "温泉小镇",
    "temperature": 11,
    "altitude": 375,
    "bestSeason": "夏季",
    "highlights": ["依云矿泉水源地", "日内瓦湖畔", "水疗SPA"],
    "description": "法国日内瓦湖南岸的温泉小镇，世界著名依云矿泉水的源头，冷泉水经过阿尔卑斯山15年自然过滤而成。",
    "matchKeys": ["依云", "Évian", "依云温泉"]
  },
  {
    "id": 113,
    "name": "瓦尔斯温泉",
    "nameEn": "Therme Vals",
    "country": "瑞士",
    "region": "欧洲",
    "lat": 46.6167,
    "lng": 9.1833,
    "type": "地热温泉",
    "temperature": 30,
    "altitude": 1252,
    "bestSeason": "冬季",
    "highlights": ["彼得·祖姆托设计", "建筑杰作", "石板温泉"],
    "description": "由普利兹克奖建筑师彼得·祖姆托设计的温泉浴场，6万块瓦尔斯片麻岩砌成的建筑本身就是艺术品。",
    "matchKeys": ["瓦尔斯", "Vals", "Therme Vals"]
  },
  {
    "id": 114,
    "name": "赫维兹温泉湖",
    "nameEn": "Hévíz Thermal Lake",
    "country": "匈牙利",
    "region": "欧洲",
    "lat": 46.7878,
    "lng": 17.1897,
    "type": "地热温泉",
    "temperature": 38,
    "altitude": 112,
    "bestSeason": "全年",
    "highlights": ["世界最大天然温泉湖", "睡莲覆盖", "湖中泡汤"],
    "description": "世界最大的可沐浴天然温泉湖，面积达4.4公顷，湖面覆盖着印度睡莲，冬季蒸汽笼罩如梦如幻。",
    "matchKeys": ["赫维兹", "Hévíz", "赫维兹温泉湖"]
  },
  {
    "id": 115,
    "name": "皮耶什佳尼温泉",
    "nameEn": "Piešťany Thermal Spa",
    "country": "斯洛伐克",
    "region": "欧洲",
    "lat": 48.5942,
    "lng": 17.8256,
    "type": "温泉小镇",
    "temperature": 67,
    "altitude": 162,
    "bestSeason": "全年",
    "highlights": ["药用泥浆浴", "温泉岛", "拐杖雕塑"],
    "description": "斯洛伐克最著名的温泉疗养地，以高温硫磺泥浆浴治疗风湿闻名，温泉岛上著名的断拐杖雕塑象征疗愈。",
    "matchKeys": ["皮耶什佳尼", "Piešťany"]
  },
  {
    "id": 116,
    "name": "罗加什卡温泉",
    "nameEn": "Rogaška Slatina",
    "country": "斯洛文尼亚",
    "region": "欧洲",
    "lat": 46.2383,
    "lng": 15.6389,
    "type": "温泉小镇",
    "temperature": 18,
    "altitude": 228,
    "bestSeason": "春夏",
    "highlights": ["高镁矿泉水", "水晶玻璃之乡", "饮泉大厅"],
    "description": "斯洛文尼亚东部的矿泉疗养小镇，以高镁含量的Donat Mg矿泉水闻名世界，饮泉大厅是新古典主义建筑精品。",
    "matchKeys": ["罗加什卡", "Rogaška"]
  },
  {
    "id": 117,
    "name": "蒙希克温泉",
    "nameEn": "Caldas de Monchique",
    "country": "葡萄牙",
    "region": "欧洲",
    "lat": 37.2889,
    "lng": -8.5556,
    "type": "温泉小镇",
    "temperature": 32,
    "altitude": 350,
    "bestSeason": "春秋",
    "highlights": ["阿尔加维山区", "碱性矿泉", "软木橡树林"],
    "description": "葡萄牙南部阿尔加维山区的温泉小镇，罗马时代起便以碱性矿泉水治疗皮肤和消化疾病闻名。",
    "matchKeys": ["蒙希克", "Monchique", "蒙希克温泉"]
  },
  {
    "id": 118,
    "name": "拉尼亚温泉",
    "nameEn": "Caldas da Rainha",
    "country": "葡萄牙",
    "region": "欧洲",
    "lat": 39.4028,
    "lng": -9.1361,
    "type": "温泉小镇",
    "temperature": 34,
    "altitude": 50,
    "bestSeason": "全年",
    "highlights": ["女王温泉", "硫磺泉", "陶艺之城"],
    "description": "葡萄牙中部的温泉城市，15世纪葡萄牙女王莱昂诺尔在此建立了世界最早的温泉医院之一。",
    "matchKeys": ["拉尼亚", "Caldas da Rainha"]
  },
  {
    "id": 119,
    "name": "帕戈萨泉",
    "nameEn": "Pagosa Springs",
    "country": "美国",
    "region": "北美洲",
    "lat": 37.2694,
    "lng": -107.0097,
    "type": "地热温泉",
    "temperature": 62,
    "altitude": 2134,
    "bestSeason": "冬季",
    "highlights": ["世界最深地热温泉", "圣胡安山脉", "滑雪温泉"],
    "description": "科罗拉多州西南部小镇，拥有吉尼斯认证的世界最深地热温泉，泉眼深度超过300米，冬季雪山环绕。",
    "matchKeys": ["帕戈萨泉", "Pagosa Springs"]
  },
  {
    "id": 120,
    "name": "格伦伍德温泉",
    "nameEn": "Glenwood Hot Springs",
    "country": "美国",
    "region": "北美洲",
    "lat": 39.5508,
    "lng": -107.3247,
    "type": "地热温泉",
    "temperature": 40,
    "altitude": 1737,
    "bestSeason": "冬季",
    "highlights": ["世界最大温泉池", "科罗拉多河畔", "百年历史"],
    "description": "科罗拉多州的世界最大天然温泉池，长两个足球场，自1888年开放以来一直是美国西部的温泉地标。",
    "matchKeys": ["格伦伍德", "Glenwood Hot Springs"]
  },
  {
    "id": 121,
    "name": "奥霍卡连特温泉",
    "nameEn": "Ojo Caliente Mineral Springs",
    "country": "美国",
    "region": "北美洲",
    "lat": 36.3108,
    "lng": -106.0492,
    "type": "地热温泉",
    "temperature": 42,
    "altitude": 1981,
    "bestSeason": "秋冬",
    "highlights": ["五种矿泉", "原住民圣地", "新墨西哥荒野"],
    "description": "新墨西哥州拥有五种不同矿物质泉水的温泉，原住民部落世代视为圣地，是美国历史最悠久的温泉度假村之一。",
    "matchKeys": ["奥霍卡连特", "Ojo Caliente"]
  },
  {
    "id": 122,
    "name": "索尔杜克温泉",
    "nameEn": "Sol Duc Hot Springs",
    "country": "美国",
    "region": "北美洲",
    "lat": 47.9681,
    "lng": -123.8608,
    "type": "野温泉",
    "temperature": 39,
    "altitude": 550,
    "bestSeason": "夏季",
    "highlights": ["奥林匹克国家公园", "温带雨林", "瀑布步道"],
    "description": "华盛顿州奥林匹克国家公园内的温泉，隐藏在古老的温带雨林深处，附近有壮观的索尔杜克瀑布。",
    "matchKeys": ["索尔杜克", "Sol Duc"]
  },
  {
    "id": 123,
    "name": "热溪温泉",
    "nameEn": "Hot Creek Geological Site",
    "country": "美国",
    "region": "北美洲",
    "lat": 37.6614,
    "lng": -118.8286,
    "type": "地热奇观",
    "temperature": 93,
    "altitude": 2120,
    "bestSeason": "夏季",
    "highlights": ["火山地热", "东内华达山脉", "间歇沸腾"],
    "description": "加利福尼亚州东内华达山脉中的地热奇观，溪流中地热水涌出形成蒸汽，因间歇性沸腾已禁止入水。",
    "matchKeys": ["热溪", "Hot Creek"]
  },
  {
    "id": 124,
    "name": "黄石猛犸阶地详览",
    "nameEn": "Yellowstone Mammoth Terraces Detail",
    "country": "美国",
    "region": "北美洲",
    "lat": 44.9686,
    "lng": -110.7039,
    "type": "地热奇观",
    "temperature": 73,
    "altitude": 1902,
    "bestSeason": "夏秋",
    "highlights": ["密涅瓦阶地", "朱庇特阶地", "活地质演变"],
    "description": "黄石北部猛犸热泉区的密涅瓦阶地，温泉水每天沉积约两吨�ite�ite，阶地形态日日变化，是地球上最活跃的碳酸盐沉积景观。",
    "matchKeys": ["猛犸阶地", "Mammoth Terraces", "密涅瓦"]
  },
  {
    "id": 125,
    "name": "巴尼奥斯温泉城",
    "nameEn": "Baños de Agua Santa",
    "country": "厄瓜多尔",
    "region": "南美洲",
    "lat": -1.3928,
    "lng": -78.4228,
    "type": "火山温泉",
    "temperature": 40,
    "altitude": 1820,
    "bestSeason": "全年",
    "highlights": ["通古拉瓦火山", "冒险之都", "圣水温泉"],
    "description": "厄瓜多尔安第斯山麓的温泉小城，坐落在活火山通古拉瓦脚下，多处温泉池因火山地热而终年温暖。",
    "matchKeys": ["巴尼奥斯", "Baños"]
  },
  {
    "id": 126,
    "name": "普洛莫温泉",
    "nameEn": "Termas del Plomo",
    "country": "智利",
    "region": "南美洲",
    "lat": -33.5667,
    "lng": -70.0667,
    "type": "野温泉",
    "temperature": 28,
    "altitude": 3200,
    "bestSeason": "夏季",
    "highlights": ["安第斯高原", "冰川融水", "极限徒步"],
    "description": "智利圣地亚哥东部安第斯山脉中的高山野温泉，海拔3200米，需穿越冰川河谷徒步到达。",
    "matchKeys": ["普洛莫", "Termas del Plomo"]
  },
  {
    "id": 127,
    "name": "里奥昆特温泉",
    "nameEn": "Rio Quente Resorts",
    "country": "巴西",
    "region": "南美洲",
    "lat": -17.7667,
    "lng": -48.7667,
    "type": "地热温泉",
    "temperature": 37,
    "altitude": 450,
    "bestSeason": "全年",
    "highlights": ["世界最大天然温泉河", "热带水上乐园", "巴西中部"],
    "description": "巴西戈亚斯州的天然温泉度假村，拥有世界流量最大的天然温泉河之一，水温常年保持37°C。",
    "matchKeys": ["里奥昆特", "Rio Quente"]
  },
  {
    "id": 128,
    "name": "别府海地狱",
    "nameEn": "Beppu Umi Jigoku",
    "country": "日本",
    "region": "亚洲",
    "lat": 33.3206,
    "lng": 131.4486,
    "type": "地热奇观",
    "temperature": 98,
    "altitude": 60,
    "bestSeason": "全年",
    "highlights": ["钴蓝色热泉", "地狱八景", "温泉蒸汽"],
    "description": "别府八大地狱中最壮观的海地狱，约1200年前火山喷发形成，泉水呈现神秘的钴蓝色，温度高达98°C。",
    "matchKeys": ["海地狱", "Umi Jigoku", "别府海地狱"]
  },
  {
    "id": 129,
    "name": "马尼卡兰温泉",
    "nameEn": "Manikaran Hot Springs",
    "country": "印度",
    "region": "亚洲",
    "lat": 32.0278,
    "lng": 77.3456,
    "type": "地热温泉",
    "temperature": 90,
    "altitude": 1760,
    "bestSeason": "春秋",
    "highlights": ["锡克教圣地", "帕尔瓦蒂河谷", "温泉煮饭"],
    "description": "印度喜马偕尔邦帕尔瓦蒂河谷中的圣温泉，泉水温度高达90°C，锡克教寺庙用温泉水煮饭招待朝圣者。",
    "matchKeys": ["马尼卡兰", "Manikaran"]
  },
  {
    "id": 130,
    "name": "塔塔帕尼温泉",
    "nameEn": "Tattapani Hot Springs",
    "country": "印度",
    "region": "亚洲",
    "lat": 31.2333,
    "lng": 77.0833,
    "type": "野温泉",
    "temperature": 50,
    "altitude": 656,
    "bestSeason": "冬季",
    "highlights": ["萨特莱杰河畔", "喜马拉雅山麓", "硫磺泉"],
    "description": "印度喜马偕尔邦萨特莱杰河畔的天然温泉，'Tattapani'意为热水，河岸边涌出的硫磺温泉被当地人视为圣水。",
    "matchKeys": ["塔塔帕尼", "Tattapani"]
  },
  {
    "id": 131,
    "name": "贾克雷姆温泉",
    "nameEn": "Jakrem Hot Springs",
    "country": "印度",
    "region": "亚洲",
    "lat": 25.2333,
    "lng": 91.7167,
    "type": "野温泉",
    "temperature": 46,
    "altitude": 1300,
    "bestSeason": "冬季",
    "highlights": ["梅加拉亚高原", "硫磺疗泉", "卡西族文化"],
    "description": "印度东北部梅加拉亚邦的天然硫磺温泉，隐藏在东卡西丘陵的茂密森林中，当地卡西族传统疗养之地。",
    "matchKeys": ["贾克雷姆", "Jakrem"]
  },
  {
    "id": 132,
    "name": "拉廊温泉公园",
    "nameEn": "Ranong Hot Spring Park",
    "country": "泰国",
    "region": "亚洲",
    "lat": 9.9614,
    "lng": 98.6333,
    "type": "地热温泉",
    "temperature": 65,
    "altitude": 12,
    "bestSeason": "凉季",
    "highlights": ["泰缅边境", "温泉公园", "矿物泥浴"],
    "description": "泰国南部拉廊府的温泉公园，位于泰缅边境附近，园内多个温度各异的温泉池，配有天然矿物泥浴。",
    "matchKeys": ["拉廊温泉公园", "Ranong Hot Spring Park"]
  },
  {
    "id": 133,
    "name": "北投地热谷",
    "nameEn": "Beitou Thermal Valley",
    "country": "中国台湾",
    "region": "亚洲",
    "lat": 25.1375,
    "lng": 121.5111,
    "type": "地热奇观",
    "temperature": 80,
    "altitude": 60,
    "bestSeason": "冬季",
    "highlights": ["青磺泉", "玉雾蒸腾", "台北近郊"],
    "description": "北投温泉区的核心景点，泉水温度高达80°C以上，硫磺蒸汽笼罩水面如白玉仙境，产出稀有的青磺泉。",
    "matchKeys": ["地热谷", "Thermal Valley", "北投地热谷"]
  },
  {
    "id": 134,
    "name": "新北投温泉",
    "nameEn": "Xinbeitou Hot Spring",
    "country": "中国台湾",
    "region": "亚洲",
    "lat": 25.1367,
    "lng": 121.5044,
    "type": "温泉小镇",
    "temperature": 42,
    "altitude": 45,
    "bestSeason": "冬季",
    "highlights": ["捷运直达", "日式浴所", "温泉博物馆"],
    "description": "台北市内搭捷运即可到达的温泉街区，保留了日治时代温泉旅馆建筑，北投温泉博物馆记录百年温泉史。",
    "matchKeys": ["新北投", "Xinbeitou", "新北投温泉"]
  },
  {
    "id": 135,
    "name": "登别地狱谷详览",
    "nameEn": "Noboribetsu Jigokudani Detail",
    "country": "日本",
    "region": "亚洲",
    "lat": 42.4950,
    "lng": 141.1500,
    "type": "地热奇观",
    "temperature": 98,
    "altitude": 220,
    "bestSeason": "冬季",
    "highlights": ["铁泉池", "大汤沼", "鬼火步道"],
    "description": "登别温泉的源头地狱谷，直径约450米的火山口遗迹中有15个泉眼喷涌，大汤沼表面温度达50°C的巨大温泉湖。",
    "matchKeys": ["登别地狱谷", "Noboribetsu Jigokudani", "大汤沼"]
  },
  {
    "id": 136,
    "name": "艾因斯昆温泉",
    "nameEn": "Ain Esskhoun Hot Spring",
    "country": "摩洛哥",
    "region": "非洲",
    "lat": 31.6250,
    "lng": -8.0000,
    "type": "地热温泉",
    "temperature": 48,
    "altitude": 450,
    "bestSeason": "冬春",
    "highlights": ["马拉喀什附近", "阿特拉斯山麓", "摩洛哥浴文化"],
    "description": "摩洛哥马拉喀什南部阿特拉斯山麓的温泉，当地柏柏尔人世代在此沐浴，温泉水富含矿物质。",
    "matchKeys": ["艾因斯昆", "Ain Esskhoun"]
  },
  {
    "id": 137,
    "name": "克萨尔吉拉纳温泉",
    "nameEn": "Ksar Ghilane Hot Spring",
    "country": "突尼斯",
    "region": "非洲",
    "lat": 32.9889,
    "lng": 8.4389,
    "type": "野温泉",
    "temperature": 37,
    "altitude": 200,
    "bestSeason": "冬春",
    "highlights": ["撒哈拉绿洲", "沙漠温泉", "星空露营"],
    "description": "突尼斯撒哈拉沙漠腹地的绿洲温泉，温暖的泉水在沙丘环抱中形成天然泳池，夜晚银河璀璨。",
    "matchKeys": ["克萨尔吉拉纳", "Ksar Ghilane"]
  },
  {
    "id": 138,
    "name": "艾因温泉",
    "nameEn": "Al Ain Hot Springs",
    "country": "阿联酋",
    "region": "亚洲",
    "lat": 24.2075,
    "lng": 55.7447,
    "type": "地热温泉",
    "temperature": 38,
    "altitude": 300,
    "bestSeason": "冬季",
    "highlights": ["绿洲城市", "杰贝尔哈菲特山", "沙漠温泉"],
    "description": "阿联酋艾因市杰贝尔哈菲特山脚下的温泉，沙漠绿洲中的天然温泉水富含矿物质，是阿拉伯半岛罕见的温泉资源。",
    "matchKeys": ["艾因温泉", "Al Ain Hot Springs"]
  },
  {
    "id": 139,
    "name": "阿法尔洼地地热",
    "nameEn": "Afar Depression Geothermal",
    "country": "埃塞俄比亚",
    "region": "非洲",
    "lat": 13.5000,
    "lng": 40.5000,
    "type": "地热奇观",
    "temperature": 100,
    "altitude": -100,
    "bestSeason": "冬季",
    "highlights": ["三板块交汇", "尔塔阿莱火山", "盐湖地热"],
    "description": "非洲之角三大板块交汇的阿法尔洼地，尔塔阿莱活火山终年熔岩翻涌，地表遍布沸腾泉眼和彩色盐湖。",
    "matchKeys": ["阿法尔洼地", "Afar Depression"]
  },
  {
    "id": 140,
    "name": "纳特龙湖温泉",
    "nameEn": "Lake Natron Hot Springs",
    "country": "坦桑尼亚",
    "region": "非洲",
    "lat": -2.4167,
    "lng": 36.0000,
    "type": "野温泉",
    "temperature": 50,
    "altitude": 600,
    "bestSeason": "旱季",
    "highlights": ["碱性湖", "火烈鸟繁殖地", "伦盖火山"],
    "description": "坦桑尼亚东非大裂谷中的碱性湖，南端有温泉涌入，是数百万小火烈鸟唯一的繁殖地，伦盖活火山矗立湖畔。",
    "matchKeys": ["纳特龙湖", "Lake Natron"]
  },
  {
    "id": 141,
    "name": "欺骗岛彭德尔湾",
    "nameEn": "Deception Island Pendulum Cove",
    "country": "南极洲",
    "region": "南极洲",
    "lat": -62.9333,
    "lng": -60.5833,
    "type": "火山温泉",
    "temperature": 30,
    "altitude": 0,
    "bestSeason": "南半球夏季",
    "highlights": ["南极火山湾", "企鹅共浴", "极地探险"],
    "description": "欺骗岛彭德尔湾是南极探险者最热门的温泉体验点，火山地热使海滩浅水区温暖宜人，常有企鹅在旁踱步。",
    "matchKeys": ["彭德尔湾", "Pendulum Cove"]
  },
  {
    "id": 142,
    "name": "罗托鲁瓦香槟池",
    "nameEn": "Champagne Pool, Rotorua",
    "country": "新西兰",
    "region": "大洋洲",
    "lat": -38.3525,
    "lng": 176.3694,
    "type": "地热奇观",
    "temperature": 74,
    "altitude": 310,
    "bestSeason": "全年",
    "highlights": ["二氧化碳气泡", "橙金色边缘", "地热珍宝"],
    "description": "怀奥塔普地热区最著名的景点，因水面不断冒出二氧化碳气泡如香槟而得名，池边橙金色矿物沉积物色彩夺目。",
    "matchKeys": ["香槟池", "Champagne Pool"]
  },
  {
    "id": 143,
    "name": "科米诺岛蓝泻湖",
    "nameEn": "Blue Lagoon Comino",
    "country": "马耳他",
    "region": "欧洲",
    "lat": 36.0117,
    "lng": 14.3269,
    "type": "海滨温泉",
    "temperature": 22,
    "altitude": 0,
    "bestSeason": "夏季",
    "highlights": ["碧蓝海水", "地中海秘境", "浮潜天堂"],
    "description": "马耳他科米诺岛的蓝泻湖，海水碧蓝透明如温泉般平静，地中海阳光下水温舒适宜人，是天然的海水浴场。",
    "matchKeys": ["科米诺蓝泻湖", "Blue Lagoon Comino"]
  },
  {
    "id": 144,
    "name": "格鲁塔斯托兰通戈",
    "nameEn": "Grutas Tolantongo",
    "country": "墨西哥",
    "region": "北美洲",
    "lat": 20.6500,
    "lng": -99.0167,
    "type": "野温泉",
    "temperature": 38,
    "altitude": 1400,
    "bestSeason": "全年",
    "highlights": ["悬崖温泉池", "蓝色洞穴", "峡谷瀑布"],
    "description": "墨西哥伊达尔戈州峡谷中的网红温泉，梯田式无边际温泉池嵌在悬崖上，蓝色石灰岩洞穴内有温泉河流淌。",
    "matchKeys": ["托兰通戈", "Grutas Tolantongo"]
  },
  {
    "id": 145,
    "name": "胡拉西温泉",
    "nameEn": "Termas de Jurasi",
    "country": "秘鲁",
    "region": "南美洲",
    "lat": -15.5833,
    "lng": -71.8833,
    "type": "野温泉",
    "temperature": 35,
    "altitude": 3630,
    "bestSeason": "旱季",
    "highlights": ["科尔卡峡谷", "安第斯秃鹰", "高原疗泉"],
    "description": "秘鲁科尔卡峡谷边的高原温泉，海拔3630米，泡温泉时可仰望安第斯秃鹰在峡谷上空翱翔。",
    "matchKeys": ["胡拉西", "Jurasi", "科尔卡温泉"]
  },
  {
    "id": 146,
    "name": "马丘比丘温泉详览",
    "nameEn": "Aguas Calientes Thermal Baths Detail",
    "country": "秘鲁",
    "region": "南美洲",
    "lat": -13.1558,
    "lng": -72.5253,
    "type": "火山温泉",
    "temperature": 40,
    "altitude": 2050,
    "bestSeason": "旱季",
    "highlights": ["印加古道终点", "乌鲁班巴河畔", "雨林蒸汽"],
    "description": "马丘比丘脚下热水镇的公共温泉浴场，徒步印加古道后浸泡在安第斯山脉地热水中恢复疲劳。",
    "matchKeys": ["马丘比丘温泉", "Aguas Calientes Baths"]
  },
  {
    "id": 147,
    "name": "别府血池地狱",
    "nameEn": "Beppu Chinoike Jigoku",
    "country": "日本",
    "region": "亚洲",
    "lat": 33.3200,
    "lng": 131.4561,
    "type": "地热奇观",
    "temperature": 78,
    "altitude": 55,
    "bestSeason": "全年",
    "highlights": ["血红色温泉", "氧化铁泥浆", "日本最古老地狱"],
    "description": "别府八大地狱中最古老的一处，泉水因含大量氧化铁和氧化镁而呈血红色，《丰后国风土记》中即有记载。",
    "matchKeys": ["血池地狱", "Chinoike Jigoku"]
  },
  {
    "id": 148,
    "name": "别府龙卷地狱",
    "nameEn": "Beppu Tatsumaki Jigoku",
    "country": "日本",
    "region": "亚洲",
    "lat": 33.3189,
    "lng": 131.4575,
    "type": "间歇泉",
    "temperature": 105,
    "altitude": 50,
    "bestSeason": "全年",
    "highlights": ["定时间歇泉", "喷发观览", "别府地狱巡游"],
    "description": "别府八大地狱之一的间歇泉，约每30-40分钟喷发一次，沸腾泉水喷射至屋顶高度，是别府地热能量的壮观展示。",
    "matchKeys": ["龙卷地狱", "Tatsumaki Jigoku"]
  },
  {
    "id": 149,
    "name": "登别大汤沼",
    "nameEn": "Noboribetsu Oyunuma",
    "country": "日本",
    "region": "亚洲",
    "lat": 42.4917,
    "lng": 141.1528,
    "type": "地热奇观",
    "temperature": 50,
    "altitude": 210,
    "bestSeason": "秋冬",
    "highlights": ["温泉湖", "天然足汤河", "枫叶环绕"],
    "description": "登别地狱谷旁的巨大温泉湖，周长约1公里，湖水表面温度约50°C，湖水溢出汇成天然足汤河流。",
    "matchKeys": ["大汤沼", "Oyunuma", "登别大汤沼"]
  },
  {
    "id": 150,
    "name": "拉廊温泉矿井",
    "nameEn": "Ranong Raksawarin Detail",
    "country": "泰国",
    "region": "亚洲",
    "lat": 9.9528,
    "lng": 98.6361,
    "type": "地热温泉",
    "temperature": 70,
    "altitude": 15,
    "bestSeason": "凉季",
    "highlights": ["三口温泉井", "母泉父泉子泉", "泰式按摩"],
    "description": "拉廊温泉的核心区域拥有三口不同温度的温泉井，分别被称为母泉、父泉和子泉，泰式按摩与温泉结合是独特体验。",
    "matchKeys": ["拉廊矿泉", "Raksawarin Detail"]
  }
]
